[
    {
        "city": "Qal eh-ye Now",
        "city_ascii": "Qal eh-ye",
        "lat": 34.98300013,
        "lng": 63.13329964,
        "pop": 2997,
        "country": "Afghanistan",
        "iso2": "AF",
        "iso3": "AFG",
        "province": "Badghis",
        "timezone": "Asia/Kabul"
    },
    {
        "city": "Chaghcharan",
        "city_ascii": "Chaghcharan",
        "lat": 34.5167011,
        "lng": 65.25000063,
        "pop": 15000,
        "country": "Afghanistan",
        "iso2": "AF",
        "iso3": "AFG",
        "province": "Ghor",
        "timezone": "Asia/Kabul"
    },
    {
        "city": "Lashkar Gāh",
        "city_ascii": "Lashkar Gah",
        "lat": 31.58299802,
        "lng": 64.35999955,
        "pop": 201546,
        "country": "Afghanistan",
        "iso2": "AF",
        "iso3": "AFG",
        "province": "Hilmand",
        "timezone": "Asia/Kabul",
        "names": "BST,Bist,Bost,Bust,Lashkar Gah,Lashkar Gāh,Lashkargah Bust,Lashkargakh,Laskargah,Las̲h̲kargāh Busṯ,Laškargāh,Nawab City,lshkr gah,Лашкаргах,لشكر گاه,لښکرگاه بسټ"
    },
    {
        "city": "Zaranj",
        "city_ascii": "Zaranj",
        "lat": 31.11200108,
        "lng": 61.88699752,
        "pop": 49851,
        "country": "Afghanistan",
        "iso2": "AF",
        "iso3": "AFG",
        "province": "Nimroz",
        "timezone": "Asia/Kabul",
        "names": "Sarandsch,ZAJ,Zaranas,Zarandj,Zarandz,Zarandzas,Zarandzh,Zarandż,Zarandžas,Zarang,Zarani,Zaranj,Zaranĝ,Zerenc,Zhazang,Zərənc,zaranja,zha lan ji,zrnj,Зарандж,Зарани,Заранҷ,زرنج,ज़रंज,扎兰季"
    },
    {
        "city": "Tarin Kowt",
        "city_ascii": "Tarin Kowt",
        "lat": 32.63329815,
        "lng": 65.86669865,
        "pop": 10000,
        "country": "Afghanistan",
        "iso2": "AF",
        "iso3": "AFG",
        "province": "Uruzgan",
        "timezone": "Asia/Kabul"
    },
    {
        "city": "Zareh Sharan",
        "city_ascii": "Zareh Sharan",
        "lat": 32.85000016,
        "lng": 68.41670453,
        "pop": 13737,
        "country": "Afghanistan",
        "iso2": "AF",
        "iso3": "AFG",
        "province": "Paktika",
        "timezone": "Asia/Kabul"
    },
    {
        "city": "Asadābād",
        "city_ascii": "Asadabad",
        "lat": 34.86600004,
        "lng": 71.15000459,
        "pop": 48400,
        "country": "Afghanistan",
        "iso2": "AF",
        "iso3": "AFG",
        "province": "Kunar",
        "timezone": "Asia/Kabul",
        "names": "Asadabad,Asadābād,Assad-Abad,Caghasaray,Chagha Serai,Chagha-Sari,Chaghah Saray,Chaghah Sarāy,Chaghasarai,Chaghasaray,Chaghasarāy,Chagsarai,Chegheh Saray,Chegheh Sarāy,Chigha Sarai,Chigha Sarāi,Chigha Serai,Chigkhasaray,asd abad,chghh sray,Čaghasarāy,Асадабад,اسد آباد,چغه سرای"
    },
    {
        "city": "Taloqan",
        "city_ascii": "Taloqan",
        "lat": 36.72999904,
        "lng": 69.54000364,
        "pop": 64256,
        "country": "Afghanistan",
        "iso2": "AF",
        "iso3": "AFG",
        "province": "Takhar",
        "timezone": "Asia/Kabul",
        "names": "Khanabad,TQN,Taikhan,Taleqan,Talikan,Talikhan,Taliqan,Talkan,Talokan,Taloqan,Talugan,Talukan,Talukanas,Taluqan,Tologan,Tâloqân,Tāleqān,Tāloqān,Tāluqān,Tālīqān,ta lu kan,talokam,talokuvan,taloqana,talqan,Таликан,Талукан,تالقان,तालोक़ान,तालोकां,தலோகுவான்,თალიკანი,塔卢坎"
    },
    {
        "city": "Mahmud-E Eraqi",
        "city_ascii": "Mahmud-E Eraqi",
        "lat": 35.01669608,
        "lng": 69.33330065,
        "pop": 7407,
        "country": "Afghanistan",
        "iso2": "AF",
        "iso3": "AFG",
        "province": "Kapisa",
        "timezone": "Asia/Kabul"
    },
    {
        "city": "Mehtar Lām",
        "city_ascii": "Mehtar Lam",
        "lat": 34.65000001,
        "lng": 70.16670052,
        "pop": 17345,
        "country": "Afghanistan",
        "iso2": "AF",
        "iso3": "AFG",
        "province": "Laghman",
        "timezone": "Asia/Kabul",
        "names": "Laghman,Mehtar Lam,Mehtar Lām,Mekhtarlam,Metarlam,Mir Talam Saheb Ziarat,Mitarlam,Miterlam,Mīr Talām Şāḩeb Zīārat,Nawar Lam,Nāwar Lam,mhtr lam,Митарлам,مهتر لام"
    },
    {
        "city": "Baraki Barak",
        "city_ascii": "Baraki Barak",
        "lat": 33.9667021,
        "lng": 68.96670354,
        "pop": 22305,
        "country": "Afghanistan",
        "iso2": "AF",
        "iso3": "AFG",
        "province": "Logar",
        "timezone": "Asia/Kabul",
        "names": "Barah Ki Barak,Barah Kī Barak,Baraki Barak,Baraki Burak,Barakibarak,Barakī Barak,Barqi Barq,OAA,brh ky brk,brky brk,بره کی برک,برکی برک"
    },
    {
        "city": "Aībak",
        "city_ascii": "Aybak",
        "lat": 36.26100015,
        "lng": 68.04000051,
        "pop": 24000,
        "country": "Afghanistan",
        "iso2": "AF",
        "iso3": "AFG",
        "province": "Samangan",
        "timezone": "Asia/Kabul",
        "names": "Aibak,Aybak,Aībak,Eybak,Haibak,Samagan,Samangan,Samangān,aybk,smngan,Āybak,Саманган,آیبک,ایبک,سمنگان"
    },
    {
        "city": "Mayda Shahr",
        "city_ascii": "Mayda Shahr",
        "lat": 34.45000209,
        "lng": 68.79999663,
        "pop": 35008,
        "country": "Afghanistan",
        "iso2": "AF",
        "iso3": "AFG",
        "province": "Wardak",
        "timezone": "Asia/Kabul"
    },
    {
        "city": "Karukh",
        "city_ascii": "Karokh",
        "lat": 34.48676963,
        "lng": 62.59177608,
        "pop": 14388.5,
        "country": "Afghanistan",
        "iso2": "AF",
        "iso3": "AFG",
        "province": "Hirat",
        "timezone": "Asia/Kabul",
        "names": "Karokh,Karrukh,Karukh,Kaṟukh,krkh,کرخ"
    },
    {
        "city": "Shibirghān",
        "city_ascii": "Sheberghan",
        "lat": 36.65798077,
        "lng": 65.73830237,
        "pop": 74441,
        "country": "Afghanistan",
        "iso2": "AF",
        "iso3": "AFG",
        "province": "Jawzjan",
        "timezone": "Asia/Kabul",
        "names": "Markaz-e Wilayat-e Shibirghan,Markaz-e Wilāyat-e Shibirghan,Seberghan,Sebeṟghān,Shahr-e Sheberghan,Shahr-e Sheberghān,Shayurgan,Shebergan,Sheberghan,Sheberghān,Sheberkhan,Shefrogan,Shibarghan,Shibarghān,Shibergan,Shibirghan,Shibirghān,mrkz wlayt shbrghan,shbrghan,shbrghn,Шеберган,شبرغان,شبرغن,مرکز ولايت شبرغان"
    },
    {
        "city": "Pul-e Khumrī",
        "city_ascii": "Pol-e Khomri",
        "lat": 35.95107302,
        "lng": 68.70111894,
        "pop": 41029,
        "country": "Afghanistan",
        "iso2": "AF",
        "iso3": "AFG",
        "province": "Baghlan",
        "timezone": "Asia/Kabul",
        "names": "Pol-e Khomri,Pol-e Khomrī,Pul-e Khumri,Pul-e Khumrī,Pul-i-Khomri,Pul-i-Khumri,Pule Khumri,Pule Khumṟi,Puli-Khumri,pl khmry,Пули-Хумри,پل خمری"
    },
    {
        "city": "Balkh",
        "city_ascii": "Balkh",
        "lat": 36.75011985,
        "lng": 66.89973018,
        "pop": 147426,
        "country": "Afghanistan",
        "iso2": "AF",
        "iso3": "AFG",
        "province": "Balkh",
        "timezone": "Asia/Kabul",
        "names": "Bactra,Bactresh,Bakhtar,Balch,Balchas,Balh,Balhika,Balho,Balj,Balkh,Balx,Balĥo,Bamik,Bazirabad,Belh,Belx,Bkahdi,Bākhtar,Daerah Balkh,Quan Balkh,Quận Balkh,Vazirabad,ba er he,balheu,barufu,blk,blkh,Μπαλχ,Балх,Вазирабад,Բալխ,בלך,بلخ,বাল্‌খ,ബൽഖ്,バルフ,巴尔赫,발흐"
    },
    {
        "city": "Maymana",
        "city_ascii": "Meymaneh",
        "lat": 35.93022158,
        "lng": 64.77009273,
        "pop": 199795,
        "country": "Afghanistan",
        "iso2": "AF",
        "iso3": "AFG",
        "province": "Faryab",
        "timezone": "Asia/Kabul",
        "names": "Daerah Maymana,MMZ,Maimana,Maimanah,Maimāna,Majmana,Maymana,Maymanah,Maïmana,Maīmanah,Meimana,Mejmene,Meymaneh,Meymene,Mimana,Quan Maymana,Quận Maymana,mai ma na,meyamana,mymnh,Меймене,ضلع میمنہ,ميمنه ولسوالۍ,میمنه,میمنہ,मेयमना,迈马纳"
    },
    {
        "city": "Andkhōy",
        "city_ascii": "Andkhvoy",
        "lat": 36.93165916,
        "lng": 65.10149369,
        "pop": 50469,
        "country": "Afghanistan",
        "iso2": "AF",
        "iso3": "AFG",
        "province": "Faryab",
        "timezone": "Asia/Kabul",
        "names": "Andkhoi,Andkhoy,Andkhui,Andkhvoy,Andkhōy,Andkhōī,Andkhūi,Ankhoi,andkhwy,اندخوی"
    },
    {
        "city": "Qalat",
        "city_ascii": "Qalat",
        "lat": 32.11226341,
        "lng": 66.8867594,
        "pop": 12191,
        "country": "Afghanistan",
        "iso2": "AF",
        "iso3": "AFG",
        "province": "Zabul",
        "timezone": "Asia/Kabul"
    },
    {
        "city": "Ghazni",
        "city_ascii": "Ghazni",
        "lat": 33.56331179,
        "lng": 68.41782873,
        "pop": 129892.5,
        "country": "Afghanistan",
        "iso2": "AF",
        "iso3": "AFG",
        "province": "Ghazni",
        "timezone": "Asia/Kabul",
        "names": "GZI,Gazni,Ghazni,Ghaznī,Shahr-e Ghazni,Shahr-e Ghaznī,gazni,gazuni,ghznt,ghzny,ghznyn,Газни,غزنة,غزنی,غزنین,ガズニー"
    },
    {
        "city": "Fayzabad",
        "city_ascii": "Feyzabad",
        "lat": 37.12976076,
        "lng": 70.57924719,
        "pop": 52490,
        "country": "Afghanistan",
        "iso2": "AF",
        "iso3": "AFG",
        "province": "Badakhshan",
        "timezone": "Asia/Kabul",
        "names": "FBD,Faizabad,Faizābād,Fajzabad,Faydz Abad,Fayzabad,Fayḏẕ Ābāḏ,Fazelabad,Faīẕābād,Feyzabad,Feyẕābād,fyd abad,Файзабад,فیض آباد"
    },
    {
        "city": "Kunduz",
        "city_ascii": "Kondoz",
        "lat": 36.72795066,
        "lng": 68.87252966,
        "pop": 210855.5,
        "country": "Afghanistan",
        "iso2": "AF",
        "iso3": "AFG",
        "province": "Kunduz",
        "timezone": "Asia/Kabul",
        "names": "Kondoz,Konduz,Kondôz,Kondūz,Kundus,Kunduz,Kunduz khot,Kunduzas,Kundúz,Kundūz,Kundūzas,Qonduz,Qondūz,Qunduz,Qundūz,Qunḏūz,Shahr-e Qondoz,UND,kantacu,kndwz,kndz,kuduza,kun dou shi,kundo~uzu,kunduja,kundujeu,kundus,kunduza,qndwz,qndz,Кундуз,Кундуз хот,قندز,قندوز,كندز,کندوز,कुंदुज़,কুন্দুজ,ਕੁੰਦੂਜ਼,கண்டசு,കുന്ദൂസ്,ყუნდუზი,クンドゥーズ,昆都士,쿤두즈"
    },
    {
        "city": "Jalālābad",
        "city_ascii": "Jalalabad",
        "lat": 34.44152692,
        "lng": 70.43610347,
        "pop": 401697,
        "country": "Afghanistan",
        "iso2": "AF",
        "iso3": "AFG",
        "province": "Nangarhar",
        "timezone": "Asia/Kabul",
        "names": "Jalalabad,Jalālābad,Jalālābād"
    },
    {
        "city": "Charikar",
        "city_ascii": "Charikar",
        "lat": 35.01826174,
        "lng": 69.16791215,
        "pop": 53676,
        "country": "Afghanistan",
        "iso2": "AF",
        "iso3": "AFG",
        "province": "Parwan",
        "timezone": "Asia/Kabul",
        "names": "Caharikar,Carikar,Carikaras,Chaharikar,Chahārīkār,Chairkar,Charekar,Charikar,Chāirkār,Chārīkār,Czarikar,Cāṟikāṟ,Tscharikar,carikar,carikara,charikari,charykar,qia li ka er,Çarikar,Ĉarikar,Čahārikār,Čarikaras,Чарикар,چاريكار,چاریکار,चारीकार,চরিকর,சாரிகார்,ჩარიქარი,恰里卡尔"
    },
    {
        "city": "Gardez",
        "city_ascii": "Gardiz",
        "lat": 33.60005373,
        "lng": 69.21462764,
        "pop": 82680.5,
        "country": "Afghanistan",
        "iso2": "AF",
        "iso3": "AFG",
        "province": "Paktya",
        "timezone": "Asia/Kabul",
        "names": "GRG,Gardeyz,Gardez,Gardiz,Gardêz,Gardēz,Gardīz,Gaṟḏēz,grdyz,Гардез,گرديز"
    },
    {
        "city": "Bāmyān",
        "city_ascii": "Bamian",
        "lat": 34.82106447,
        "lng": 67.52103593,
        "pop": 61863,
        "country": "Afghanistan",
        "iso2": "AF",
        "iso3": "AFG",
        "province": "Bamyan",
        "timezone": "Asia/Kabul",
        "names": "BIN,Bamian,Bamiyan,Bamyan,Bāmyān,Bāmīān,Kala Sarkari,Qal`a Sarkarit,Qala Sarkari,Qala Sarkāri,Qal‘a Sarkārit,bamyan,باميان"
    },
    {
        "city": "Baghlān",
        "city_ascii": "Baghlan",
        "lat": 36.13933026,
        "lng": 68.69925858,
        "pop": 163598.5,
        "country": "Afghanistan",
        "iso2": "AF",
        "iso3": "AFG",
        "province": "Baghlan",
        "timezone": "Asia/Kabul",
        "names": "Baghlan,Baghlan - bghlan,Baghlan - بغلان,Baghlan-e Jadid,Baghlin,Baghlān,Baghlān-e Jadīd,Baglan,Bagolaggo,Sana `Ati,Sana`ati,bghlan,bghlan jdyd,Şanā ‘Ati,Şanā‘atī,Баглан,بغلان,بغلان جديد,صناعتی"
    },
    {
        "city": "Farah",
        "city_ascii": "Farah",
        "lat": 32.39172955,
        "lng": 62.09681921,
        "pop": 58604,
        "country": "Afghanistan",
        "iso2": "AF",
        "iso3": "AFG",
        "province": "Farah",
        "timezone": "Asia/Kabul",
        "names": "FAH,Farah,Farahas,Farakh,Farâh,Farāh,Ferah,fa la,faraha,frah,pala,para,Фарах,فراه,فراہ,फ़राह,பாரா,法拉,파라"
    },
    {
        "city": "Herāt",
        "city_ascii": "Herat",
        "lat": 34.33000917,
        "lng": 62.16999304,
        "pop": 439232.5,
        "country": "Afghanistan",
        "iso2": "AF",
        "iso3": "AFG",
        "province": "Hirat",
        "timezone": "Asia/Kabul",
        "names": "Gerat,HEA,Herat,Herāt,Hérat,Kherat,Shahr-e Herat,Shahr-e Herāt,he la te,herato,hrat,Герат,Херат,هراة,هرات,ヘラート,赫拉特"
    },
    {
        "city": "Mazār-e Sharīf",
        "city_ascii": "Mazar-e Sharif",
        "lat": 36.69999371,
        "lng": 67.10002803,
        "pop": 365432.5,
        "country": "Afghanistan",
        "iso2": "AF",
        "iso3": "AFG",
        "province": "Balkh",
        "timezone": "Asia/Kabul",
        "names": "MZR,Masar-e Scharif,Mazar-e Sarif,Mazar-e Sharif,Mazar-e Šarif,Mazar-e-Sharif,Mazar-i Szarif,Mazar-i-Sharif,Mazare Srif,Mazari Sharif,Mazari-Sharif,Mazār-e Sharīf,Mazār-e Šarīf,Mazār-i-Sharīf,Mazāre S̄rīf,majaleu-isyalipeu,mazarisharifu,mzar shryf,Мазари-Шариф,مزار شريف,مزار شریف,マザーリシャリーフ,마자르이샤리프"
    },
    {
        "city": "Kandahār",
        "city_ascii": "Kandahar",
        "lat": 31.61002016,
        "lng": 65.69494584,
        "pop": 613871,
        "country": "Afghanistan",
        "iso2": "AF",
        "iso3": "AFG",
        "province": "Kandahar",
        "timezone": "Asia/Kabul",
        "names": "Candahar,KDH,Kandagar,Kandahar,Kandaharo,Kandahār,Kandehar,Kandhar,Qandahar,Qandahār,Qanḏahāṟ,kan da ha,kandaharu,kndhar,qndhar,qndhʼr,Кандагар,קנדהאר,قندهار,كندهار,カンダハール,坎大哈"
    },
    {
        "city": "Kabul",
        "city_ascii": "Kabul",
        "lat": 34.51669029,
        "lng": 69.18326005,
        "pop": 3160266,
        "country": "Afghanistan",
        "iso2": "AF",
        "iso3": "AFG",
        "province": "Kabul",
        "timezone": "Asia/Kabul",
        "names": "Cabool,Caboul,Cabul,Cabul - kabl,Cabul - کابل,Cabura,Cabúl,Caubul,KBL,Kabil,Kaboel,Kabol,Kaboul,Kabul,Kabula,Kabulas,Kabuli,Kabulo,Kabura,Kabúl,Kabûl,Kampoul,Kobul,Kubha,Kábul,Kâbil,Kābol,ka bu er,kabl,kabul,kabula,kabuli,kaburu,kabwl,kapul,ke bu er,khabul,Καμπούλ,Кабул,Кобул,Քաբուլ,קאבול,كابل,كابۇل,کابل,کابول,काबुल,কাবুল,ਕਾਬੁਲ,କାବୁଲ,காபூல்,ಕಾಬುಲ್,കാബൂൾ,කාබුල්,คาบูล,ཁ་པལ།,ཁ་པུལ།,ქაბული,ካቡል,ទីក្រុងកាបូល,カブール,カーブル,喀布尔,喀布爾,카불"
    },
    {
        "city": "Mariehamn",
        "city_ascii": "Mariehamn",
        "lat": 60.09699618,
        "lng": 19.94900447,
        "pop": 10682,
        "country": "Aland",
        "iso2": "AX",
        "iso3": "ALD",
        "province": "Finström",
        "timezone": "Europe/Mariehamn",
        "names": "MHQ,Maarianhamina,Marianhamina,Mariankhamina,Mariehameena,Mariehamn,Mariekhamn,Mariuhoefn,Mariyekhamn,Marrianhamina,Maríuhöfn,malieham,mariehamun,Мариехамн,マリエハムン,마리에함"
    },
    {
        "city": "Krujë",
        "city_ascii": "Kruje",
        "lat": 41.51899817,
        "lng": 19.79700359,
        "pop": 21286,
        "country": "Albania",
        "iso2": "AL",
        "iso3": "ALB",
        "province": "Durrës",
        "timezone": "Europe/Tirane",
        "names": "Akcehisar,Akçehisar,Croia,Cruja,Krna,Kroia,Kroja,Kroya,Kroïa,Krue,Krueja,Kruja,Kruje,Krujë,Круе"
    },
    {
        "city": "Fier",
        "city_ascii": "Fier",
        "lat": 40.73000402,
        "lng": 19.5730026,
        "pop": 69747.5,
        "country": "Albania",
        "iso2": "AL",
        "iso3": "ALB",
        "province": "Fier",
        "timezone": "Europe/Tirane",
        "names": "Fearica,Fier,Fieri,Fieris,Fijer,Fjer,Fjeri,a pha'ira,fei xia er,fieru,fyr,pieleu,Фиер,Фиери,Фієрі,Фјер,فیر,अ फाइर,フィエル,非夏爾,피에르"
    },
    {
        "city": "Lushnjë",
        "city_ascii": "Lushnje",
        "lat": 40.94000113,
        "lng": 19.71600348,
        "pop": 41469,
        "country": "Albania",
        "iso2": "AL",
        "iso3": "ALB",
        "province": "Fier",
        "timezone": "Europe/Tirane",
        "names": "Liusne,Liušnė,Ljushna Cod a Gomares,Ljushnja,Ljusnje,Ljušnje,Lousnia,Lushne,Lushnja,Lushnje,Lushnjë,Lusnje,Lušnje,lu shen nie,lusyunyeo,lwshnyh,rushunya,Лушње,Люшня,لوشنيه,لوشنیہ,ルシュニャ,卢什涅,루슈녀"
    },
    {
        "city": "Puke",
        "city_ascii": "Puke",
        "lat": 42.03330302,
        "lng": 19.88330448,
        "pop": 6495,
        "country": "Albania",
        "iso2": "AL",
        "iso3": "ALB",
        "province": "Shkodër",
        "timezone": "Europe/Tirane"
    },
    {
        "city": "Bajram Curri",
        "city_ascii": "Bajram Curri",
        "lat": 42.33330007,
        "lng": 20.08330257,
        "pop": 7967,
        "country": "Albania",
        "iso2": "AL",
        "iso3": "ALB",
        "province": "Kukës",
        "timezone": "Europe/Tirane"
    },
    {
        "city": "Kukës",
        "city_ascii": "Kukes",
        "lat": 42.08300107,
        "lng": 20.43399653,
        "pop": 17832,
        "country": "Albania",
        "iso2": "AL",
        "iso3": "ALB",
        "province": "Kukës",
        "timezone": "Europe/Tirane",
        "names": "Cucus,Kukes,Kukesi,Kuks,Kuksi,Kukuch,Kukus,Kukush,Kukës,Kukësi,Кукес,Кукуш,Кукъс"
    },
    {
        "city": "Sarandë",
        "city_ascii": "Sarande",
        "lat": 39.87700212,
        "lng": 19.99999859,
        "pop": 15147,
        "country": "Albania",
        "iso2": "AL",
        "iso3": "ALB",
        "province": "Vlorë",
        "timezone": "Europe/Tirane",
        "names": "Agioi,Agioi Saranta,Ayii Saranda,Hagios Saranta,Onchesmus,Porto Edda,Santa Quaranta,Santi Quaranta,Saranda,Sarande,Sarandë,Sarandė,Saranta,XSA,Zogaj,sa lan da,salandeo,saranda,sarandh,srndh,Άγιοι Σαράντα,Саранда,Սարանդա,סרנדה,سارانده,ساراندہ,サランダ,萨兰达,사란더"
    },
    {
        "city": "Erseke",
        "city_ascii": "Erseke",
        "lat": 40.33330213,
        "lng": 20.68329651,
        "pop": 7890,
        "country": "Albania",
        "iso2": "AL",
        "iso3": "ALB",
        "province": "Korçë",
        "timezone": "Europe/Tirane"
    },
    {
        "city": "Pogradec",
        "city_ascii": "Pogradec",
        "lat": 40.89999612,
        "lng": 20.66400062,
        "pop": 35000,
        "country": "Albania",
        "iso2": "AL",
        "iso3": "ALB",
        "province": "Korçë",
        "timezone": "Europe/Tirane",
        "names": "Opshtina Pogradec,Podgradec,Pogradec,Pogradeci,Pogradecis,Pogradets,bo ge la de ci,pogeuladecheu,poguradetsu,pwgradts,pwgrdz,Πόγραδετς,Општина Поградец,Поградец,Подградец,פוגרדץ,پوگرادتس,ポグラデツ,波格拉德茨,포그라데츠"
    },
    {
        "city": "Korçë",
        "city_ascii": "Korce",
        "lat": 40.61667601,
        "lng": 20.76666353,
        "pop": 58259,
        "country": "Albania",
        "iso2": "AL",
        "iso3": "ALB",
        "province": "Korçë",
        "timezone": "Europe/Tirane",
        "names": "Corce,Corcë,Coritsa,Coritza,Coriza,Corizza,Corriza,Ghiortsa Corcia,Goerice,Gorica,Goritsa,Görice,Korca,Korce,Korcha,Korche,Korcza,Korica,Korice,Koritsa,Koritza,Korrca,Korrce,Korrça,Korrçë,Korytsa,Korça,Korçë,Korča,Korčė,Körice,ke er cha,koleucheo,korucha,kwrchh,qwrzh,Κορυτσά,Горица,Корча,Կորչա,קורצה,کورچه,کورچہ,コルチャ,科尔察,코르처"
    },
    {
        "city": "Berat",
        "city_ascii": "Berat",
        "lat": 40.70999705,
        "lng": 19.97199958,
        "pop": 46866,
        "country": "Albania",
        "iso2": "AL",
        "iso3": "ALB",
        "province": "Berat",
        "timezone": "Europe/Tirane",
        "names": "Belgrad,Beligrad,Berat,Berati,Beration,Beratis,Berta,Bərat,Lezskigrad,Verati,Veration,belateu,berato,brat,byrat,pei la te,Μπεράτ,Белград,Берат,Բերատ,בראט,برات,بیرات,ბერატი,ベラト,培拉特,베라트"
    },
    {
        "city": "Corovode",
        "city_ascii": "Corovode",
        "lat": 40.51670403,
        "lng": 20.23329663,
        "pop": 14046,
        "country": "Albania",
        "iso2": "AL",
        "iso3": "ALB",
        "province": "Berat",
        "timezone": "Europe/Tirane"
    },
    {
        "city": "Gramsh",
        "city_ascii": "Gramsh",
        "lat": 40.86669601,
        "lng": 20.19999652,
        "pop": 11556,
        "country": "Albania",
        "iso2": "AL",
        "iso3": "ALB",
        "province": "Elbasan",
        "timezone": "Europe/Tirane"
    },
    {
        "city": "Librazhd",
        "city_ascii": "Librazhd",
        "lat": 41.20000211,
        "lng": 20.3667036,
        "pop": 12691,
        "country": "Albania",
        "iso2": "AL",
        "iso3": "ALB",
        "province": "Elbasan",
        "timezone": "Europe/Tirane"
    },
    {
        "city": "Tepelene",
        "city_ascii": "Tepelene",
        "lat": 40.2832981,
        "lng": 20.03329854,
        "pop": 11955,
        "country": "Albania",
        "iso2": "AL",
        "iso3": "ALB",
        "province": "Gjirokastër",
        "timezone": "Europe/Tirane"
    },
    {
        "city": "Permet",
        "city_ascii": "Permet",
        "lat": 40.23399605,
        "lng": 20.35199756,
        "pop": 10686,
        "country": "Albania",
        "iso2": "AL",
        "iso3": "ALB",
        "province": "Gjirokastër",
        "timezone": "Europe/Tirane"
    },
    {
        "city": "Gjirokastër",
        "city_ascii": "Gjirokaster",
        "lat": 40.07899809,
        "lng": 20.14900256,
        "pop": 23437,
        "country": "Albania",
        "iso2": "AL",
        "iso3": "ALB",
        "province": "Gjirokastër",
        "timezone": "Europe/Tirane",
        "names": "Agirocastro,Arghirocastru,Arghyrocastro,Argirocastro,Argirokastro,Argyrocastrum,Argyrokastro,Argyrokastron,Aryirokastro,Aryirokastron,Ergheni,Ergiri,GJirokastra,Ghinokastre,Girokasteris,Girokastra,Girokastro,Gjinokaster,Gjinokastra,Gjinokastre,Gjinokastrer,Gjinokastër,Gjirokaster,Gjirokastra,Gjirokastre,Gjirokastro,Gjirokastrë,Gjirokastër,arjyr,gyrwqstrh,ji nuo ka si te,jilokaseuteoleu,jirokasutora,jyrwkastr,Đirokastra,Αργυρόκαστρο,Ђирокастра,Ѓирокастро,Аргирокастро,Гирокастра,Гирокастро,Гірокастра,גירוקסטרה,ارجیر,جیروکاستر,გიროკასტრა,ジロカストラ,吉诺卡斯特,지로카스터르"
    },
    {
        "city": "Peshkopi",
        "city_ascii": "Peshkopi",
        "lat": 41.6833021,
        "lng": 20.43330349,
        "pop": 14848,
        "country": "Albania",
        "iso2": "AL",
        "iso3": "ALB",
        "province": "Dibër",
        "timezone": "Europe/Tirane"
    },
    {
        "city": "Burrel",
        "city_ascii": "Burrel",
        "lat": 41.62599908,
        "lng": 20.01600053,
        "pop": 15405,
        "country": "Albania",
        "iso2": "AL",
        "iso3": "ALB",
        "province": "Dibër",
        "timezone": "Europe/Tirane",
        "names": "Burel,Burela,Burele,Bureli,Burelis,Burelë,Burrel,Burrel',Burrele,Burreli,Burrelë,bu lei li,bulel,bureru,bwrly,Бурел,Буррели,Буррель,بورلی,ブレル,布雷利,부렐"
    },
    {
        "city": "Lezhë",
        "city_ascii": "Lezhe",
        "lat": 41.78799914,
        "lng": 19.65400254,
        "pop": 18695,
        "country": "Albania",
        "iso2": "AL",
        "iso3": "ALB",
        "province": "Lezhë",
        "timezone": "Europe/Tirane",
        "names": "Alessio,Les,Lesh,Leshe,Leshi,Leska,Leze,Lezh,Lezha,Lezhe,Lezhë,Leş,Ležė,Lisi,Ljes,Ljesh,Lješ,Lyesh,lai shen,lejeo,lezha,lzhh,Љеш,Лежа,Леска,لژه,لژہ,ლეჟა,莱什,레저"
    },
    {
        "city": "Rreshen",
        "city_ascii": "Rreshen",
        "lat": 41.78330106,
        "lng": 19.81670459,
        "pop": 10064,
        "country": "Albania",
        "iso2": "AL",
        "iso3": "ALB",
        "province": "Lezhë",
        "timezone": "Europe/Tirane"
    },
    {
        "city": "Vlorë",
        "city_ascii": "Vlore",
        "lat": 40.47736005,
        "lng": 19.49823075,
        "pop": 89508.5,
        "country": "Albania",
        "iso2": "AL",
        "iso3": "ALB",
        "province": "Vlorë",
        "timezone": "Europe/Tirane",
        "names": "Au'lon,Au’lon,Avlon,Avlona,Avlonas,Avlonya,VRR,Vallona,Valona,Vl'ora,Vliore,Vliorė,Vljora,Vlona,Vlone,Vlonë,Vlora,Vlore,Vlorë,Vlyora,Vļora,Wlora,beulloleo,fa luo la,flwrh,vurora,wlo rex,wlwrh,Αυλώνας,Валона,Вльора,Влёра,Վլորա,ולורה,فلوره,ولوره,ولورہ,วโลเรอ,ヴロラ,发罗拉,블로러"
    },
    {
        "city": "Elbasan",
        "city_ascii": "Elbasan",
        "lat": 41.12150677,
        "lng": 20.08382808,
        "pop": 132956.5,
        "country": "Albania",
        "iso2": "AL",
        "iso3": "ALB",
        "province": "Elbasan",
        "timezone": "Europe/Tirane",
        "names": "Ehl'basan,Elbasan,Elbasani,Elbassan,Konukh,Елбасан,Коњух,Эльбасан"
    },
    {
        "city": "Durrës",
        "city_ascii": "Durres",
        "lat": 41.3177997,
        "lng": 19.44820797,
        "pop": 132233,
        "country": "Albania",
        "iso2": "AL",
        "iso3": "ALB",
        "province": "Durrës",
        "timezone": "Europe/Tirane",
        "names": "DUH,Drac,Drach,Drač,Duraso,Durazo,Durazzo,Durazzu,Durehs,Dures,Duresi,Duresis,Durrazo,Durres,Durresa,Durresi,Durrsi,Durrës,Durrësi,Durts,Durus,Durz,Durësi,Dyrrachio,Dyrrachium,Dyrrakhion,Dyrrhachium,Epidamnos,dou la si,do~urasu,draj,dras,duleoseu,duresi,durres,dwrs,Δυρράχιο,Драч,Дуррес,Дуръс,Дурэс,דורס,دراج,دراس,ดูร์เรส,დურესი,ドゥラス,都拉斯,두러스"
    },
    {
        "city": "Shkodër",
        "city_ascii": "Shkoder",
        "lat": 42.06845156,
        "lng": 19.51884965,
        "pop": 122006,
        "country": "Albania",
        "iso2": "AL",
        "iso3": "ALB",
        "province": "Shkodër",
        "timezone": "Europe/Tirane",
        "names": "Iskodra,Scutari,Shkoder,Shkodra,Shkodër,Skadar,Skodra,Szkodra,sqwdr,İşkodra,Škodra,Скадар,Шкодер,Шкодра,שקודר"
    },
    {
        "city": "Tirana",
        "city_ascii": "Tirana",
        "lat": 41.32754071,
        "lng": 19.81888301,
        "pop": 658318,
        "country": "Albania",
        "iso2": "AL",
        "iso3": "ALB",
        "province": "Durrës",
        "timezone": "Europe/Tirane",
        "names": "TIA,Terana,Theranda,Tiorana,Tiorána,Tiran,Tiran khot,Tiran-a,Tirana,Tiranae,Tirane,Tirano,Tiranë,Tirāna,Trnava,Tyrana,Tyranna,Tírana,Tîrana,Tėrana,de la na,tilana,tirana,tyrana,tyrnh,Τίρανα,Тиран хот,Тиранæ,Тирана,Тиране,Трнава,Тырана,Տիրանա,טיראנא,טירנה,تىرانا,تيرانا,تیرانا,तिराना,তিরানা,ਤਿਰਾਨਾ,ଟିରାନା,டிரானா,ടിറാന,ติรานา,ཐིས་རན།,ტირანა,ቲራና,ティラナ,地拉那,티라나"
    },
    {
        "city": "Jijel",
        "city_ascii": "Jijel",
        "lat": 36.82199703,
        "lng": 5.76600356,
        "pop": 148000,
        "country": "Algeria",
        "iso2": "DZ",
        "iso3": "DZA",
        "province": "Jijel",
        "timezone": "Africa/Algiers",
        "names": "Djedjelli,Djidjelli,Dzhidzhel',Dzidzelis,Dzidzili,Dżidżili,Džidželis,GJL,Giger,Gíger,Igilgili,Jijelli,ji jie lei,jijeru,jyjl,jyjl  aljzayr,Джиджель,جيجل,جیجل,جیجل، الجزایر,ジジェル,吉杰勒"
    },
    {
        "city": "Tizi Ouzou",
        "city_ascii": "Tizi-Ouzou",
        "lat": 36.80000111,
        "lng": 4.033332556,
        "pop": 144000,
        "country": "Algeria",
        "iso2": "DZ",
        "iso3": "DZA",
        "province": "Tizi Ouzou",
        "timezone": "Africa/Algiers",
        "names": "QZI,Tizi Ouzou,Tizi Uzu,Tizi Wuzu,Tizi-Ouzou,Tizi-Uzu,Tīzī Wuzū,ti ji wu zu,tijiuju,tyzy wzw,Тизи Узу,Тизи-Узу,تيزي وزو,تیزی وزو,提济乌祖,티지우주"
    },
    {
        "city": "Bordj Bou Arreridj",
        "city_ascii": "Bordj Bou Arreridj",
        "lat": 36.05900401,
        "lng": 4.629996466,
        "pop": 134500,
        "country": "Algeria",
        "iso2": "DZ",
        "iso3": "DZA",
        "province": "Bordj Bou Arréridj",
        "timezone": "Africa/Algiers",
        "names": "Bordj Bou Arerridj,Bordj Bou Arreridj,Bordj-Bou-Arreridj,Borj Bu Arrerij,Burdz Bu Urajridz,Burdż Bu Urajridż,QBJ,برج بوعريريج"
    },
    {
        "city": "M'sila",
        "city_ascii": "M'sila",
        "lat": 35.7000031,
        "lng": 4.545000584,
        "pop": 125000,
        "country": "Algeria",
        "iso2": "DZ",
        "iso3": "DZA",
        "province": "M'Sila",
        "timezone": "Africa/Algiers"
    },
    {
        "city": "Guelma",
        "city_ascii": "Guelma",
        "lat": 36.46600213,
        "lng": 7.427997486,
        "pop": 123590,
        "country": "Algeria",
        "iso2": "DZ",
        "iso3": "DZA",
        "province": "Guelma",
        "timezone": "Africa/Algiers",
        "names": "Calama,Galma,Gel'ma,Gelma,Guelma,Kalima,QGE,gai lei ma,qalmh  aljzayr,qalmt,valmt,Гельма,قالمة,قالمه، الجزایر,قالمہ,ڤالمة,盖勒马"
    },
    {
        "city": "Oum el Bouaghi",
        "city_ascii": "Oum el Bouaghi",
        "lat": 35.84999715,
        "lng": 7.149996522,
        "pop": 100821,
        "country": "Algeria",
        "iso2": "DZ",
        "iso3": "DZA",
        "province": "Oum el Bouaghi",
        "timezone": "Africa/Algiers",
        "names": "Canrobert,Oum el Bouaghi,Oum-el-Bouachi,QMH,am albwaqy,أم البواقي"
    },
    {
        "city": "Timimoun",
        "city_ascii": "Timimoun",
        "lat": 29.23652163,
        "lng": 0.269998737,
        "pop": 26568,
        "country": "Algeria",
        "iso2": "DZ",
        "iso3": "DZA",
        "province": "Adrar",
        "timezone": "Africa/Algiers",
        "names": "TMX,Timimoun,Timimun,Timmoun,tmymwn,tymymwn,Тимимун,تميمون,تيميمون"
    },
    {
        "city": "Sidi Bel Abbès",
        "city_ascii": "Sidi bel Abbes",
        "lat": 35.19034426,
        "lng": -0.639971559,
        "pop": 200186.5,
        "country": "Algeria",
        "iso2": "DZ",
        "iso3": "DZA",
        "province": "Sidi Bel Abbès",
        "timezone": "Africa/Algiers",
        "names": "BFW,Sid Bel Abbes,Sid Bel Abbès,Sidi Bel Abbes,Sidi Bel Abbès,Sidi Bel Abes,Sidi Belabbas,Sidi Belɛebbas,Sidi Bilabbas,Sidi Bu-l-Abbas,Sidi bel Abbes,Sidi bel Abbès,Sidi bel Abesas,Sidi-Bal-Abbes,Sidi-Bal-Abbès,Sidi-Bel'-Abbes,Sidi-Bel-Abbes,Sidi-Bel-Abbès,Sidi-bel-Abbes,Sidi-bel-Abbès,Sidy-Bel'-Abes,sidibel-abeseu,xi di bei lei a ba si,Сиди Бел Абес,Сиди-Бель-Аббес,Сиди-Бель-Аббес қаласы,Сіды-Бель-Абес,Сіді-Бель-Аббес,סידי בל-עבאס,سيدي بلعباس,سیدی بلعباس,سیدی بلعباس، الجزایر,ولاية سيدي بلعباس,西迪贝勒阿巴斯,시디벨아베스"
    },
    {
        "city": "Tlimcen",
        "city_ascii": "Tlimcen",
        "lat": 34.89041424,
        "lng": -1.32000757,
        "pop": 181059,
        "country": "Algeria",
        "iso2": "DZ",
        "iso3": "DZA",
        "province": "Tlemcen",
        "timezone": "Africa/Algiers"
    },
    {
        "city": "Beni Ounif",
        "city_ascii": "Beni Ounif",
        "lat": 32.04926984,
        "lng": -1.251381268,
        "pop": 5628,
        "country": "Algeria",
        "iso2": "DZ",
        "iso3": "DZA",
        "province": "Béchar",
        "timezone": "Africa/Algiers"
    },
    {
        "city": "Abadla",
        "city_ascii": "Abadla",
        "lat": 31.01708478,
        "lng": -2.733306317,
        "pop": 14364,
        "country": "Algeria",
        "iso2": "DZ",
        "iso3": "DZA",
        "province": "Béchar",
        "timezone": "Africa/Algiers"
    },
    {
        "city": "Sefra",
        "city_ascii": "Sefra",
        "lat": 32.76041506,
        "lng": -0.579949383,
        "pop": 51118,
        "country": "Algeria",
        "iso2": "DZ",
        "iso3": "DZA",
        "province": "Naâma",
        "timezone": "Africa/Algiers"
    },
    {
        "city": "Skikda",
        "city_ascii": "Skikda",
        "lat": 36.88042198,
        "lng": 6.899981647,
        "pop": 193941.5,
        "country": "Algeria",
        "iso2": "DZ",
        "iso3": "DZA",
        "province": "Skikda",
        "timezone": "Africa/Algiers",
        "names": "Philippeville,Phillippville,SKI,Skikda,Sukaikida,Sukajkida,Sukaykida,fylybfyl,seukigda,si ji ke da,skikada,skykdt,Скикда,Скикда қаласы,Скікда,سكيكدة,سکیکدہ,فيليبفيل,ولاية سعيدة,স্কিকদা,斯基克达,스킥다"
    },
    {
        "city": "Djanet",
        "city_ascii": "Djanet",
        "lat": 24.5529057,
        "lng": 9.482252969,
        "pop": 666,
        "country": "Algeria",
        "iso2": "DZ",
        "iso3": "DZA",
        "province": "Illizi",
        "timezone": "Africa/Algiers"
    },
    {
        "city": "I-n-Amenas",
        "city_ascii": "I-n-Amenas",
        "lat": 28.0503408,
        "lng": 9.550000772,
        "pop": 216,
        "country": "Algeria",
        "iso2": "DZ",
        "iso3": "DZA",
        "province": "Illizi",
        "timezone": "Africa/Algiers"
    },
    {
        "city": "In Amguel",
        "city_ascii": "In Amguel",
        "lat": 23.69394004,
        "lng": 5.164738727,
        "pop": 3030,
        "country": "Algeria",
        "iso2": "DZ",
        "iso3": "DZA",
        "province": "Tamanghasset",
        "timezone": "Africa/Algiers"
    },
    {
        "city": "El Bayadh",
        "city_ascii": "El Bayadh",
        "lat": 33.6903583,
        "lng": 1.009953571,
        "pop": 67413,
        "country": "Algeria",
        "iso2": "DZ",
        "iso3": "DZA",
        "province": "El Bayadh",
        "timezone": "Africa/Algiers",
        "names": "EBH,El Bayadh,El-Bayadh,Geryville,Géryville,Prowincja El Bayadh,Wilaya de El Bayadh,alblydh,albyd,wlayt albyd,البلیده,البيض,ولاية البيض"
    },
    {
        "city": "El Oued",
        "city_ascii": "El Oued",
        "lat": 33.37040367,
        "lng": 6.859984089,
        "pop": 177497,
        "country": "Algeria",
        "iso2": "DZ",
        "iso3": "DZA",
        "province": "Biskra",
        "timezone": "Africa/Algiers",
        "names": "Al-Wadi,ELU,Ehl'-Uehd,El Oued,El Qued,Oued Souf,Uedas,alwady,wa de,wady,wady swf,Эль-Уэд,Эль-Уэд қаласы,אל-ואד,الوادي,اﻟﻮادى,وادي سوف,وادی,瓦德"
    },
    {
        "city": "Hassi Messaoud",
        "city_ascii": "Hassi Messaoud",
        "lat": 31.70234011,
        "lng": 6.054451862,
        "pop": 18124,
        "country": "Algeria",
        "iso2": "DZ",
        "iso3": "DZA",
        "province": "Ouargla",
        "timezone": "Africa/Algiers",
        "names": "HME,Hassi Messaoud,Khasi Mesaud,Khassi-Messaud,ha xi mai sa wu de,hasimesaudeu,Хаси Месауд,Хасси-Мессауд,حاسي مسعود,哈西迈萨乌德,하시메사우드"
    },
    {
        "city": "Chlef",
        "city_ascii": "Chlef",
        "lat": 36.17041363,
        "lng": 1.319960489,
        "pop": 449167,
        "country": "Algeria",
        "iso2": "DZ",
        "iso3": "DZA",
        "province": "Chlef",
        "timezone": "Africa/Algiers",
        "names": "CFK,Castellum Tingitanum,Chlef,Ech Cheliff,Ech Chlef,El Asnam,Orleansville,Orléansville,Selifas,Shlef,Szalif,al-Asnam,al-Asnām,al-Aṣnām,alasnam,alshlf,as-Salif,asch-Schalif,ash-Shalif,awrlyanfyl,aš-Šalif,kastylywm tanjytanywm,kstlm tnjytanm,shlf,shurefu,xie li fu,Šelifas,Шлеф,أورليانفيل,الأصنام,الشلف,شلف,كاستيليوم تانجيتانيوم,كستلم تنجيتانم,シュレフ,谢利夫"
    },
    {
        "city": "Mascara",
        "city_ascii": "Mascara",
        "lat": 35.40040895,
        "lng": 0.14003251,
        "pop": 108230,
        "country": "Algeria",
        "iso2": "DZ",
        "iso3": "DZA",
        "province": "Mascara",
        "timezone": "Africa/Algiers",
        "names": "MUW,Mascara,Maskara,Mu'askar,Muaskar,Mu’askar,maseukala,maskara,masukara,mu a si kai er,mʿskr‎,Маскара,معسكر,معسكر‎,معسکر، الجزائر,মাস্কারা,マスカラ,穆阿斯凯尔,마스카라"
    },
    {
        "city": "Mostaganem",
        "city_ascii": "Mostaganem",
        "lat": 35.940376,
        "lng": 0.089983885,
        "pop": 159177,
        "country": "Algeria",
        "iso2": "DZ",
        "iso3": "DZA",
        "province": "Mostaganem",
        "timezone": "Africa/Algiers",
        "names": "MQV,Mastaganeam,Mostaganem,Mostaganemas,Mustaghanam,Mustaghanim,Mustɣanem,mostaghanemi,mstaghanm,mstghanm,mu si ta jia nai mu,Мостаганем,مستاغانم,مستغانم,მოსთაღანემი,穆斯塔加奈姆"
    },
    {
        "city": "Saïda",
        "city_ascii": "Saida",
        "lat": 34.84039146,
        "lng": 0.14003251,
        "pop": 134855,
        "country": "Algeria",
        "iso2": "DZ",
        "iso3": "DZA",
        "province": "Saïda",
        "timezone": "Africa/Algiers",
        "names": "Sa'ida,Saida,Sajda,Saïda,Sa’ida,sai yi da,saida,Саида,Сайда,Саїда,سعيدة,سعیده، الجزایر,سعیدہ، الجزائر,サイダ,塞伊达,사이다"
    },
    {
        "city": "Tiarat",
        "city_ascii": "Tiarat",
        "lat": 35.38043601,
        "lng": 1.319960489,
        "pop": 184195,
        "country": "Algeria",
        "iso2": "DZ",
        "iso3": "DZA",
        "province": "Tiaret",
        "timezone": "Africa/Algiers"
    },
    {
        "city": "Bejaïa",
        "city_ascii": "Bejaia",
        "lat": 36.76037762,
        "lng": 5.070015827,
        "pop": 274520,
        "country": "Algeria",
        "iso2": "DZ",
        "iso3": "DZA",
        "province": "Béjaïa",
        "timezone": "Africa/Algiers",
        "names": "BJA,Bedzaja,Bedzhaja,Bejaia,Bejaïa,Bidschaya,Bidschāya,Bigaya,Bijaya,Bijāya,Biǧāya,Bougie,Bugia,Bugía,Béjaïa,bjayh,bjayt,bjayہ,Беджая,Беџаја,بجاية,بجایه,بجایہ"
    },
    {
        "city": "Blida",
        "city_ascii": "Blida",
        "lat": 36.4203467,
        "lng": 2.829997517,
        "pop": 388174,
        "country": "Algeria",
        "iso2": "DZ",
        "iso3": "DZA",
        "province": "Blida",
        "timezone": "Africa/Algiers",
        "names": "Al-Bulajda,Bilda,Blida,Buleyde,Dilida,El Bouleida,QLD,alblydh,alblydt,b li da,beullida,bo li da,burida,Блида,Бліда,البليدة,البلیده,بلیدہ,บลีดา,ブリダ,卜利达,블리다"
    },
    {
        "city": "Bouïra",
        "city_ascii": "Bouira",
        "lat": 36.38047833,
        "lng": 3.900009724,
        "pop": 110144,
        "country": "Algeria",
        "iso2": "DZ",
        "iso3": "DZA",
        "province": "Bouira",
        "timezone": "Africa/Algiers",
        "names": "Bouira,Bouïra,QBZ,albwyrt,البويرة"
    },
    {
        "city": "Médéa",
        "city_ascii": "Medea",
        "lat": 36.27040753,
        "lng": 2.770001179,
        "pop": 145863.5,
        "country": "Algeria",
        "iso2": "DZ",
        "iso3": "DZA",
        "province": "Médéa",
        "timezone": "Africa/Algiers",
        "names": "Al-Madijja,Lambdia,Lemdiyyet,Medea,Medeah,Medeja,Medėja,Médéa,almdyh  aljzayr,almdyt,mai di ya,medea,Медеа,Медея,المدية,المدیه، الجزایر,مدیہ,麦迪亚,메데아"
    },
    {
        "city": "Souk Ahras",
        "city_ascii": "Souk Ahras",
        "lat": 36.29038047,
        "lng": 7.949995075,
        "pop": 134947,
        "country": "Algeria",
        "iso2": "DZ",
        "iso3": "DZA",
        "province": "Souk Ahras",
        "timezone": "Africa/Algiers",
        "names": "QSK,Souk Ahras,Souk-Ahras,Soukaras,Souq Ahras,Suk Ahras,Suk Ahrasas,Suk Aras,Suk-Akhras,Suq Ahras,Szuk Ahrasz,Szúk Ahrász,Tagaste,su ge ai he la si,sukeualaseu,swq ahras,swq ahras  aljzayr,Сук-Ахрас,سوق أهراس,سوق اهراس، الجزایر,سوق اہراس,苏格艾赫拉斯,수크아라스"
    },
    {
        "city": "Tébessa",
        "city_ascii": "Tebessa",
        "lat": 35.41043418,
        "lng": 8.120010537,
        "pop": 171742,
        "country": "Algeria",
        "iso2": "DZ",
        "iso3": "DZA",
        "province": "Tébessa",
        "timezone": "Africa/Algiers",
        "names": "TEE,Tebesa,Tebessa,Theveste,Tibissa,Tébessa,tai bei sa,tbsh  aljzayr,tbst,Тебесса,Тебесса қаласы,تبسة,تبسه، الجزایر,تیبازہ,泰贝萨"
    },
    {
        "city": "Adrar",
        "city_ascii": "Adrar",
        "lat": 27.86999005,
        "lng": -0.289967083,
        "pop": 56910,
        "country": "Algeria",
        "iso2": "DZ",
        "iso3": "DZA",
        "province": "Adrar",
        "timezone": "Africa/Algiers",
        "names": "AZR,Adrar,Adraras,a de la er,adeulaleu,adrar,adrar  aljzayr,xa drar,Адрар,أدرار,ادرار، الجزائر,อาดราร์,阿德拉尔,아드라르"
    },
    {
        "city": "Reggane",
        "city_ascii": "Reggane",
        "lat": 26.69998395,
        "lng": 0.166645873,
        "pop": 22351.5,
        "country": "Algeria",
        "iso2": "DZ",
        "iso3": "DZA",
        "province": "Adrar",
        "timezone": "Africa/Algiers",
        "names": "Reggan,Reggane,Zaouiet Reggan,Zaouiet Reggane,rqan,رقان"
    },
    {
        "city": "Béchar",
        "city_ascii": "Bechar",
        "lat": 31.61110537,
        "lng": -2.230003704,
        "pop": 142415.5,
        "country": "Algeria",
        "iso2": "DZ",
        "iso3": "DZA",
        "province": "Béchar",
        "timezone": "Africa/Algiers",
        "names": "Basyar,Baszszar,Bechar,Besaras,Beshar,Beshare,Bexar,Bešaras,Béchar,CBH,Colomb-Bechar,Colomb-Béchar,Wilaya de Beshar,bei sha er,besharu,besyaleu,bshar,bshar  aljzayr,Бешар,Бешаре,بشار,بشار، الجزایر,ベシャール,贝沙尔,베샤르"
    },
    {
        "city": "Tindouf",
        "city_ascii": "Tindouf",
        "lat": 27.67418805,
        "lng": -8.147782025,
        "pop": 18270,
        "country": "Algeria",
        "iso2": "DZ",
        "iso3": "DZA",
        "province": "Tindouf",
        "timezone": "Africa/Algiers",
        "names": "Provinsi Tindouf,TIN,Tindouf,Tinduf,Tindufas,Tindúf,tindo~ufu,tindupeu,ting du fu,tndwf,tyndwf,Тиндуф,تندوف,تيندوف,ティンドゥフ,廷杜夫,틴두프"
    },
    {
        "city": "Illizi",
        "city_ascii": "Illizi",
        "lat": 26.48335634,
        "lng": 8.466604369,
        "pop": 7293,
        "country": "Algeria",
        "iso2": "DZ",
        "iso3": "DZA",
        "province": "Illizi",
        "timezone": "Africa/Algiers"
    },
    {
        "city": "Arāk",
        "city_ascii": "Arak",
        "lat": 25.2799931,
        "lng": 3.749993041,
        "pop": 423251,
        "country": "Algeria",
        "iso2": "DZ",
        "iso3": "DZA",
        "province": "Tamanghasset",
        "timezone": "Africa/Algiers",
        "names": "Arak,Arak - sawh,Arak - ساوه,Arok,Arāk,Ehrak,Soltanabad,Solţānābād,Sultanabad,Sultānābād,`Iraq,arak,sawh,sultan abad,Арак,Арок,Эрак,اراک,ساوه,سُلطان آباد,‘Irāq"
    },
    {
        "city": "I-n-Salah",
        "city_ascii": "I-n-Salah",
        "lat": 27.21664492,
        "lng": 2.466608845,
        "pop": 28632,
        "country": "Algeria",
        "iso2": "DZ",
        "iso3": "DZA",
        "province": "Tamanghasset",
        "timezone": "Africa/Algiers"
    },
    {
        "city": "El Golea",
        "city_ascii": "El Golea",
        "lat": 30.56662132,
        "lng": 2.883327595,
        "pop": 32049,
        "country": "Algeria",
        "iso2": "DZ",
        "iso3": "DZA",
        "province": "Ghardaïa",
        "timezone": "Africa/Algiers"
    },
    {
        "city": "Laghouat",
        "city_ascii": "Laghouat",
        "lat": 33.80998924,
        "lng": 2.880020303,
        "pop": 108279,
        "country": "Algeria",
        "iso2": "DZ",
        "iso3": "DZA",
        "province": "Laghouat",
        "timezone": "Africa/Algiers",
        "names": "Al-Aghwat,LOO,Laghouat,Laguat,Laguatas,Larhouat,aghwat,ai ge wa te,alaghwat,alaghwat  aljzayr,Лагуат,לאגוואט,اغواط,الأغواط,الاغواط، الجزایر,艾格瓦特"
    },
    {
        "city": "Touggourt",
        "city_ascii": "Touggourt",
        "lat": 33.0999809,
        "lng": 6.05998124,
        "pop": 91499,
        "country": "Algeria",
        "iso2": "DZ",
        "iso3": "DZA",
        "province": "Ouargla",
        "timezone": "Africa/Algiers",
        "names": "TGR,Touggourt,Tougourt,Tuggurt,Tugurtas,Tukkurt,to~ugura,tqrt,tqwrt  aljzayr,tu gu er te,tuguleuteu,Туггурт,Туггурт қаласы,تقرت,تقورت، الجزایر,トゥーグラ,图古尔特,투구르트"
    },
    {
        "city": "Ouargla",
        "city_ascii": "Ouargla",
        "lat": 31.96997235,
        "lng": 5.340025186,
        "pop": 176271,
        "country": "Algeria",
        "iso2": "DZ",
        "iso3": "DZA",
        "province": "Ouargla",
        "timezone": "Africa/Algiers",
        "names": "OGX,Ouargla,Quargla,Uargla,Warkala,Warqla,ualeugeulla,wa er ge la,war kla,warugura,wrqlh  aljzayr,wrqlt,Уаргла,Уаргла қаласы,ورقلة,ورقله، الجزایر,ورقلہ,วาร์กลา,ワルグラ,瓦尔格拉,우아르글라"
    },
    {
        "city": "Biskra",
        "city_ascii": "Biskra",
        "lat": 34.85997683,
        "lng": 5.73002722,
        "pop": 202103,
        "country": "Algeria",
        "iso2": "DZ",
        "iso3": "DZA",
        "province": "Biskra",
        "timezone": "Africa/Algiers",
        "names": "BSK,Biskira,Biskra,Briskra,Tibeskert,bi si ke la,bisakra,biseukeula,bisukura,bskrh,bskrt,wlayt bskrt,Бискра,Біскра,بسكرة,بسکره,بسکرہ,ولاية بسكرة,বিসক্রা,ビスクラ,比斯克拉,비스크라"
    },
    {
        "city": "Djelfa",
        "city_ascii": "Djelfa",
        "lat": 34.67998781,
        "lng": 3.250023558,
        "pop": 170901,
        "country": "Algeria",
        "iso2": "DZ",
        "iso3": "DZA",
        "province": "Djelfa",
        "timezone": "Africa/Algiers",
        "names": "Djelfa,Dzilfa,Dżilfa,Jelfa,QDJ,aljlft,jlfh,wlayt aljlft,الجلفة,جلفه,ولاية الجلفة"
    },
    {
        "city": "Sétif",
        "city_ascii": "Setif",
        "lat": 36.18002545,
        "lng": 5.399969847,
        "pop": 274744,
        "country": "Algeria",
        "iso2": "DZ",
        "iso3": "DZA",
        "province": "Sétif",
        "timezone": "Africa/Algiers",
        "names": "QSF,Sathif,Satif,Setif,Setifas,Setyf,Sitifis,Stif,Sétif,sai ti fu,setifu,setipeu,stf,styf,styp,wlayt styf,Сетиф,Сетиф қаласы,Сетыф,Сетіф,סטיף,سطف,سطيف,ولاية سطيف,Ṣṭif,セティフ,塞提夫,세티프"
    },
    {
        "city": "Batna",
        "city_ascii": "Batna",
        "lat": 35.56995933,
        "lng": 6.170000365,
        "pop": 269467,
        "country": "Algeria",
        "iso2": "DZ",
        "iso3": "DZA",
        "province": "Batna",
        "timezone": "Africa/Algiers",
        "names": "BLJ,Batina,Batna,Batna City,Batnah,Tbatent,Wilaya de Batna,ba te na,bateuna,batnh  aljzayr,batnt,batona,wlayt batnt,Батна,Батна қаласы,باتنة,باتنه، الجزایر,باتنہ,باتنہ، الجزائر,ولاية باتنة,バトナ,巴特纳,바트나"
    },
    {
        "city": "Annaba",
        "city_ascii": "Annaba",
        "lat": 36.92000612,
        "lng": 7.759980834,
        "pop": 355047,
        "country": "Algeria",
        "iso2": "DZ",
        "iso3": "DZA",
        "province": "Annaba",
        "timezone": "Africa/Algiers",
        "names": "AAE,Aanavaen,Anaba,Annaba,Annaba - syaht,Annaba - سياحة,Annába,Aânavaen,Bona,Bone,Bône,Hippo,Hippo Regius,an na ba,an'naba,annaba,Анаба,Аннаба,Аннаба қаласы,Աննաբա,عنابة,عنابه,عنابہ,আন্নাবা,アンナバ,安纳巴,안나바"
    },
    {
        "city": "Constantine",
        "city_ascii": "Constantine",
        "lat": 36.35998863,
        "lng": 6.599948281,
        "pop": 527638,
        "country": "Algeria",
        "iso2": "DZ",
        "iso3": "DZA",
        "province": "Constantine",
        "timezone": "Africa/Algiers",
        "names": "CZL,Cirta,Constantina,Constantine,Konstantina,Konstantini,jun shi tan ding,kanstainta'ina,konsutantinu,qsntynh,qsntynt,qwnstntyn,Κωνσταντίνη,Константина,קונסטנטין,قسنطينة,قسنطینه,कांस्टैंटाइन,コンスタンティーヌ,君士坦丁"
    },
    {
        "city": "Oran",
        "city_ascii": "Oran",
        "lat": 35.71000246,
        "lng": -0.61997278,
        "pop": 721992,
        "country": "Algeria",
        "iso2": "DZ",
        "iso3": "DZA",
        "province": "Oran",
        "timezone": "Africa/Algiers",
        "names": "Aran,ORN,Ora,Oran,Orana,Oranas,Orano,Orà,Orán,Orã,Orāna,Ouahran,Wahran,Wahrān,Waradinne,Wehran,olang,oran,orana,orani,vahirana,wa he lan,whran,whran  aljzayr,wlayt whran,xx ran,Οράν,Аран,Оран,Оран қаласы,אוראן,ولاية وهران,وهران,وهران، الجزایر,وہران,وەھران,ওরান,ਵਹਿਰਾਨ,ออราน,ორანი,オラン,瓦赫蘭,오랑"
    },
    {
        "city": "Tamanrasset",
        "city_ascii": "Tamanrasset",
        "lat": 22.78500327,
        "lng": 5.522804727,
        "pop": 71808,
        "country": "Algeria",
        "iso2": "DZ",
        "iso3": "DZA",
        "province": "Tamanghasset",
        "timezone": "Africa/Algiers",
        "names": "Fort Laperine,Fort Laperrine,TMR,Tamahrasset,Tamanghasset,Tamanraset,Tamanrasetas,Tamanrasset,Tamanrassete,Tamenghasset,Tamenɣest,ta man la sai te,tamanlaseteu,tamanrasetto,tamnghst,tamnrast,tmnrast,Таманрасет,Таманрассет,Таманрассете,תאמאנראסט,تامنراست,تامنغست,تمنراست,タマンラセット,塔曼拉塞特,타만라세트"
    },
    {
        "city": "Ghardaïa",
        "city_ascii": "Ghardaia",
        "lat": 32.48999229,
        "lng": 3.669997923,
        "pop": 125480,
        "country": "Algeria",
        "iso2": "DZ",
        "iso3": "DZA",
        "province": "Ghardaïa",
        "timezone": "Africa/Algiers",
        "names": "GHA,Gardaja,Gardaya,Ghardaia,Ghardaja,Ghardaïa,Ghardája,Jimbo ya Ghardaia,Jimbo ya Ghardaïa,Rhardaia,Rhardaïa,Tagerdayt,Taγerdayt,gai er da ye,galeudaia,garudaia,ghrdayh,ghrdayt,wlayt ghrdayt,Гардая,Гардая қаласы,غرداية,غردایه,ولاية غرداية,ガルダイア,盖尔达耶,가르다이아"
    },
    {
        "city": "Algiers",
        "city_ascii": "Algiers",
        "lat": 36.7630648,
        "lng": 3.05055253,
        "pop": 2665831.5,
        "country": "Algeria",
        "iso2": "DZ",
        "iso3": "DZA",
        "province": "Alger",
        "timezone": "Africa/Algiers",
        "names": "ALG,Al Jazair,Al-jezair,Alcher,Alge,Algeirsborg,Alger,Algeri,Algero,Algier,Algiers,Algir,Alg·èr,Algê,Algír,Alje,Aljer,Aljir,Alse,Alxer,Alzer,Alzhir,Alzhir khot,Alzhir shaary,Alzhyr,Alziir,Alzir,Alzira,Alzirs,Alzyras,Alĝero,Alžiir,Alžir,Alžyras,Alžír,Alžěr,Alžīra,Alžīrs,Argel,Argier,Argièr,Arhel,Arjel,Arxel,Caesair,Cathair na hAilgeire,Cathair na hAilgéire,Cezayir,Cäsair,Icosium,Jazoir,Zzayer,a er ji er,ala-jaza'ira,alajiyarsa,alje,alji'ersa,aljiyars,aljiyarsa,aljyrz,aljzayr,aljzayr (mdynt),aljzayr alʿasmt,aljzyrh,alzhiri,aruje,jەzayyr,mdynt aljzayr,yaljyr,Əlcəzair,ʼlgyr,Αλγέρι,Алжир,Алжир хот,Алжир шаары,Алжыр,Алҷазоир,Ալժիր,אלגיר,אלזשירס,ئالجىر,الجزائر,الجزائر (مدينة),الجزائر العاصمة,الجزائر شہر,الجزيره,الجزیره,الجیرز,جەزائیر,مدينة الجزائر,ܓܙܐܐܪ,अल्जीएर्स,अल्जीयर्स,আলজিয়ার্স,ਅਲ-ਜਜ਼ਾਇਰ,அல்ஜியர்ஸ்,അൾജിയേഴ്സ്,แอลเจียร์,ཨཱལ་ཇི་ཡར་སི།,အယ်လဂျီးယားမြို့,ალჟირი,አልጀርስ,アルジェ,阿爾及爾,알제"
    },
    {
        "city": "Pago Pago",
        "city_ascii": "Pago Pago",
        "lat": -14.2766105,
        "lng": -170.7066451,
        "pop": 12038,
        "country": "American Samoa",
        "iso2": "AS",
        "iso3": "ASM",
        "province": "",
        "timezone": "Pacific/Pago_Pago",
        "names": "PPG,Paga-Paga,Pago Pago,Pago-Pago,PagoPago,Pagopago,Pagó Pagó,Panko Panko,Paqo Paqo,baghw baghw,pa guo pa guo,pa ko pa ko,pago pago,pagopago,pagw pagw,pako pako,pango pango,Πάγκο Πάγκο,Пага-Пага,Паго Паго,Паго-Паго,Пагопаго,Պագո Պագո,פאגו פאגו,باغو باغو,پاگو پاگو,पांगो पांगो,பாகோ பாகோ,ปาโกปาโก,პაგო-პაგო,パゴパゴ,帕果帕果,파고 파고,파고파고"
    },
    {
        "city": "Andorra la Vella",
        "city_ascii": "Andorra",
        "lat": 42.50000144,
        "lng": 1.516485961,
        "pop": 38127,
        "country": "Andorra",
        "iso2": "AD",
        "iso3": "AND",
        "province": "",
        "timezone": "Europe/Andorra",
        "names": "ALV,Ando-la-Vyey,Andora,Andora la Vela,Andora la Velja,Andora lja Vehl'ja,Andoro Malnova,Andorra,Andorra Tuan,Andorra a Vella,Andorra la Biella,Andorra la Vella,Andorra la Vielha,Andorra-a-Velha,Andorra-la-Vel'ja,Andorra-la-Vielye,Andorre-la-Vieille,Andò-la-Vyèy,Andòrra la Vièlha,an dao er cheng,andolalabeya,andwra la fyla,Ανδόρρα,Андора ла Веля,Андора ла Веља,Андора ля Вэлья,Андорра-ла-Велья,אנדורה לה וולה,أندورا لا فيلا,አንዶራ ላ ቬላ,アンドラ・ラ・ヴェリャ,安道爾城,안도라라베야"
    },
    {
        "city": "Mucusso",
        "city_ascii": "Mucusso",
        "lat": -18.01953449,
        "lng": 21.42999914,
        "pop": 100,
        "country": "Angola",
        "iso2": "AO",
        "iso3": "AGO",
        "province": "Cuando Cubango",
        "timezone": "Africa/Luanda"
    },
    {
        "city": "Lucapa",
        "city_ascii": "Lucapa",
        "lat": -8.419603659,
        "lng": 20.74001542,
        "pop": 25578,
        "country": "Angola",
        "iso2": "AO",
        "iso3": "AGO",
        "province": "Lunda Norte",
        "timezone": "Africa/Luanda",
        "names": "LBZ,Lucapa,Lukapa,Лукапа"
    },
    {
        "city": "Capenda-Camulemba",
        "city_ascii": "Capenda-Camulemba",
        "lat": -9.4195943,
        "lng": 18.43002722,
        "pop": 79842.5,
        "country": "Angola",
        "iso2": "AO",
        "iso3": "AGO",
        "province": "Lunda Norte",
        "timezone": "Africa/Luanda"
    },
    {
        "city": "Saurimo",
        "city_ascii": "Saurimo",
        "lat": -9.659579652,
        "lng": 20.39001094,
        "pop": 40907,
        "country": "Angola",
        "iso2": "AO",
        "iso3": "AGO",
        "province": "Lunda Sul",
        "timezone": "Africa/Luanda",
        "names": "Henrique de Carvalho,Saurimo,Saurimu,VHC,Vila Henrique de Carvalho,Сауримо"
    },
    {
        "city": "Muconda",
        "city_ascii": "Muconda",
        "lat": -10.59962563,
        "lng": 21.31998002,
        "pop": 2324,
        "country": "Angola",
        "iso2": "AO",
        "iso3": "AGO",
        "province": "Lunda Sul",
        "timezone": "Africa/Luanda"
    },
    {
        "city": "Cacolo",
        "city_ascii": "Cacolo",
        "lat": -10.14962726,
        "lng": 19.2600024,
        "pop": 984,
        "country": "Angola",
        "iso2": "AO",
        "iso3": "AGO",
        "province": "Lunda Sul",
        "timezone": "Africa/Luanda"
    },
    {
        "city": "Caxito",
        "city_ascii": "Caxito",
        "lat": -8.579542217,
        "lng": 13.65998246,
        "pop": 15665.5,
        "country": "Angola",
        "iso2": "AO",
        "iso3": "AGO",
        "province": "Bengo",
        "timezone": "Africa/Luanda",
        "names": "Caxito,Kashito,Kaxito,Кашито"
    },
    {
        "city": "Camabatela",
        "city_ascii": "Camabatela",
        "lat": -8.189591859,
        "lng": 15.37000728,
        "pop": 12731,
        "country": "Angola",
        "iso2": "AO",
        "iso3": "AGO",
        "province": "Cuanza Norte",
        "timezone": "Africa/Luanda"
    },
    {
        "city": "Ndalatando",
        "city_ascii": "Ndalatando",
        "lat": -9.299549948,
        "lng": 14.90998368,
        "pop": 8144,
        "country": "Angola",
        "iso2": "AO",
        "iso3": "AGO",
        "province": "Cuanza Norte",
        "timezone": "Africa/Luanda"
    },
    {
        "city": "Quibala",
        "city_ascii": "Quibala",
        "lat": -10.72959186,
        "lng": 14.97995357,
        "pop": 5248.5,
        "country": "Angola",
        "iso2": "AO",
        "iso3": "AGO",
        "province": "Cuanza Sul",
        "timezone": "Africa/Luanda"
    },
    {
        "city": "Calulo",
        "city_ascii": "Calulo",
        "lat": -9.999610577,
        "lng": 14.90001013,
        "pop": 795,
        "country": "Angola",
        "iso2": "AO",
        "iso3": "AGO",
        "province": "Cuanza Sul",
        "timezone": "Africa/Luanda"
    },
    {
        "city": "Waku Kungo",
        "city_ascii": "Waku Kungo",
        "lat": -11.35952757,
        "lng": 15.1199967,
        "pop": 11519.5,
        "country": "Angola",
        "iso2": "AO",
        "iso3": "AGO",
        "province": "Cuanza Sul",
        "timezone": "Africa/Luanda"
    },
    {
        "city": "Songo",
        "city_ascii": "Songo",
        "lat": -7.349591452,
        "lng": 14.84998734,
        "pop": 10579,
        "country": "Angola",
        "iso2": "AO",
        "iso3": "AGO",
        "province": "Uíge",
        "timezone": "Africa/Luanda"
    },
    {
        "city": "Mbanza-Congo",
        "city_ascii": "Mbanza-Congo",
        "lat": -6.269605694,
        "lng": 14.23999874,
        "pop": 42201,
        "country": "Angola",
        "iso2": "AO",
        "iso3": "AGO",
        "province": "Zaire",
        "timezone": "Africa/Luanda"
    },
    {
        "city": "N'zeto",
        "city_ascii": "Nzeto",
        "lat": -7.229598776,
        "lng": 12.86003129,
        "pop": 19705.5,
        "country": "Angola",
        "iso2": "AO",
        "iso3": "AGO",
        "province": "Zaire",
        "timezone": "Africa/Luanda",
        "names": "ARZ,Ambrisette,Ambrizete,Ambrizette,Nzeto,Нзето"
    },
    {
        "city": "Soio",
        "city_ascii": "Soyo",
        "lat": -6.129614239,
        "lng": 12.36998368,
        "pop": 65329,
        "country": "Angola",
        "iso2": "AO",
        "iso3": "AGO",
        "province": "Zaire",
        "timezone": "Africa/Luanda",
        "names": "SZA,Saint Antonio do Zaire,San Antonio,Santo Antoni,Santo Antonio do Zaire,Santo António do Zaire,Santo-Antonio,Santo-António,Sao Antonio,Sazaire,Soio,Sojo,Soyo,São Antônio,Сойо"
    },
    {
        "city": "Cabinda",
        "city_ascii": "Cabinda",
        "lat": -5.55962319,
        "lng": 12.18999467,
        "pop": 78905.5,
        "country": "Angola",
        "iso2": "AO",
        "iso3": "AGO",
        "province": "Cabinda",
        "timezone": "Africa/Luanda",
        "names": "CAB,Cabinda,Kabinda,Кабинда"
    },
    {
        "city": "Calucinga",
        "city_ascii": "Calucinga",
        "lat": -11.31958169,
        "lng": 16.19998246,
        "pop": 531,
        "country": "Angola",
        "iso2": "AO",
        "iso3": "AGO",
        "province": "Bié",
        "timezone": "Africa/Luanda"
    },
    {
        "city": "Camacupa",
        "city_ascii": "Camacupa",
        "lat": -12.01959064,
        "lng": 17.46998246,
        "pop": 19489,
        "country": "Angola",
        "iso2": "AO",
        "iso3": "AGO",
        "province": "Bié",
        "timezone": "Africa/Luanda",
        "names": "Camacupa,General Machado,General Machado Villa,General Mathado,Kamakupa,Machado,Vila General Machado,Камакупа"
    },
    {
        "city": "Cubal",
        "city_ascii": "Cubal",
        "lat": -13.03958006,
        "lng": 14.23999874,
        "pop": 4837,
        "country": "Angola",
        "iso2": "AO",
        "iso3": "AGO",
        "province": "Benguela",
        "timezone": "Africa/Luanda"
    },
    {
        "city": "Mavinga",
        "city_ascii": "Mavinga",
        "lat": -15.7895414,
        "lng": 20.36003861,
        "pop": 30000,
        "country": "Angola",
        "iso2": "AO",
        "iso3": "AGO",
        "province": "Cuando Cubango",
        "timezone": "Africa/Luanda"
    },
    {
        "city": "Cuito Caunavale",
        "city_ascii": "Cuito Caunavale",
        "lat": -15.15960569,
        "lng": 19.16998205,
        "pop": 149,
        "country": "Angola",
        "iso2": "AO",
        "iso3": "AGO",
        "province": "Cuando Cubango",
        "timezone": "Africa/Luanda"
    },
    {
        "city": "Luiana",
        "city_ascii": "Luiana",
        "lat": -17.36954832,
        "lng": 22.99998083,
        "pop": 150,
        "country": "Angola",
        "iso2": "AO",
        "iso3": "AGO",
        "province": "Cuando Cubango",
        "timezone": "Africa/Luanda"
    },
    {
        "city": "Ondjiva",
        "city_ascii": "Ondjiva",
        "lat": -17.06961831,
        "lng": 15.73003699,
        "pop": 8748,
        "country": "Angola",
        "iso2": "AO",
        "iso3": "AGO",
        "province": "Cunene",
        "timezone": "Africa/Luanda"
    },
    {
        "city": "Chitado",
        "city_ascii": "Chitado",
        "lat": -17.31962889,
        "lng": 13.92001827,
        "pop": 468.5,
        "country": "Angola",
        "iso2": "AO",
        "iso3": "AGO",
        "province": "Cunene",
        "timezone": "Africa/Luanda"
    },
    {
        "city": "Chibemba",
        "city_ascii": "Chibemba",
        "lat": -15.74959552,
        "lng": 14.0800085,
        "pop": 1502,
        "country": "Angola",
        "iso2": "AO",
        "iso3": "AGO",
        "province": "Huíla",
        "timezone": "Africa/Luanda"
    },
    {
        "city": "Chibia",
        "city_ascii": "Chibia",
        "lat": -15.1896297,
        "lng": 13.69000647,
        "pop": 1411,
        "country": "Angola",
        "iso2": "AO",
        "iso3": "AGO",
        "province": "Huíla",
        "timezone": "Africa/Luanda"
    },
    {
        "city": "Quipungo",
        "city_ascii": "Quipungo",
        "lat": -14.82954832,
        "lng": 14.55000565,
        "pop": 186,
        "country": "Angola",
        "iso2": "AO",
        "iso3": "AGO",
        "province": "Huíla",
        "timezone": "Africa/Luanda"
    },
    {
        "city": "Luau",
        "city_ascii": "Luau",
        "lat": -10.7095414,
        "lng": 22.23000199,
        "pop": 9964,
        "country": "Angola",
        "iso2": "AO",
        "iso3": "AGO",
        "province": "Moxico",
        "timezone": "Africa/Luanda",
        "names": "Luao,Luau,Teixeira de Sousa,Teixera de Sousa,Texeira-de Susa,UAL,Vila Teixeira de Sousa,Vila Teixeira de Souza,Vila Teixera de Souza,Vila Texeira de Sousa,Луау"
    },
    {
        "city": "Cangamba",
        "city_ascii": "Cangamba",
        "lat": -13.69959145,
        "lng": 19.86001745,
        "pop": 1307,
        "country": "Angola",
        "iso2": "AO",
        "iso3": "AGO",
        "province": "Moxico",
        "timezone": "Africa/Luanda"
    },
    {
        "city": "Lumbala Nguimbo",
        "city_ascii": "Lumbala Nguimbo",
        "lat": -14.09961871,
        "lng": 21.44002437,
        "pop": 25,
        "country": "Angola",
        "iso2": "AO",
        "iso3": "AGO",
        "province": "Moxico",
        "timezone": "Africa/Luanda"
    },
    {
        "city": "Cazombo",
        "city_ascii": "Cazombo",
        "lat": -11.88957273,
        "lng": 22.90003861,
        "pop": 298,
        "country": "Angola",
        "iso2": "AO",
        "iso3": "AGO",
        "province": "Moxico",
        "timezone": "Africa/Luanda"
    },
    {
        "city": "Dundo",
        "city_ascii": "Dundo",
        "lat": -7.380028871,
        "lng": 20.82998409,
        "pop": 11985,
        "country": "Angola",
        "iso2": "AO",
        "iso3": "AGO",
        "province": "Lunda Norte",
        "timezone": "Africa/Luanda"
    },
    {
        "city": "Ambriz",
        "city_ascii": "Ambriz",
        "lat": -7.85498696,
        "lng": 13.12502803,
        "pop": 17000,
        "country": "Angola",
        "iso2": "AO",
        "iso3": "AGO",
        "province": "Bengo",
        "timezone": "Africa/Luanda"
    },
    {
        "city": "Dondo",
        "city_ascii": "Dondo",
        "lat": -9.690017071,
        "lng": 14.43001298,
        "pop": 2353,
        "country": "Angola",
        "iso2": "AO",
        "iso3": "AGO",
        "province": "Cuanza Norte",
        "timezone": "Africa/Luanda",
        "names": "Dondo,Vila do Dondo,Дондо"
    },
    {
        "city": "Sumbe",
        "city_ascii": "Sumbe",
        "lat": -11.21002765,
        "lng": 13.8499967,
        "pop": 29638.5,
        "country": "Angola",
        "iso2": "AO",
        "iso3": "AGO",
        "province": "Cuanza Sul",
        "timezone": "Africa/Luanda",
        "names": "Angungescapolo,NDD,Ngunza,Nova Redonda,Nova Redondo,Novo Redondo,Sumbe,Sumbė,sun bei,sunbe,swmbh  angwla,Сумбе,سومبه، آنگولا,سومبے,スンベ,孫貝"
    },
    {
        "city": "Uíge",
        "city_ascii": "Uige",
        "lat": -7.620014222,
        "lng": 15.04997514,
        "pop": 56787.5,
        "country": "Angola",
        "iso2": "AO",
        "iso3": "AGO",
        "province": "Uíge",
        "timezone": "Africa/Luanda",
        "names": "Carmona,UGO,Uige,Uije,Uizhe,Uíge,Vila Marchel Carmona,Уиже"
    },
    {
        "city": "Cuito",
        "city_ascii": "Kuito",
        "lat": -12.38003375,
        "lng": 16.93998897,
        "pop": 113955,
        "country": "Angola",
        "iso2": "AO",
        "iso3": "AGO",
        "province": "Bié",
        "timezone": "Africa/Luanda",
        "names": "Bie,Bihe,Bihé,Bié,Cuito,Cuíto,Kuito,SVP,Silva Porto,Vila Salva Porto,Куито"
    },
    {
        "city": "Lobito",
        "city_ascii": "Lobito",
        "lat": -12.37000853,
        "lng": 13.54123002,
        "pop": 170733,
        "country": "Angola",
        "iso2": "AO",
        "iso3": "AGO",
        "province": "Benguela",
        "timezone": "Africa/Luanda",
        "names": "LLT,Lobitas,Lobito,Lobitu,Lubitu,lbytw  angwla,lobitu,luo bi tuo,robito,Лобито,Лобиту,Лобіту,لبیتو، آنگولا,ロビト,洛比托,로비투"
    },
    {
        "city": "Xangongo",
        "city_ascii": "Xangongo",
        "lat": -16.74002602,
        "lng": 14.96998002,
        "pop": 447,
        "country": "Angola",
        "iso2": "AO",
        "iso3": "AGO",
        "province": "Cunene",
        "timezone": "Africa/Luanda"
    },
    {
        "city": "Luena",
        "city_ascii": "Luena",
        "lat": -11.79004393,
        "lng": 19.90001501,
        "pop": 17276.5,
        "country": "Angola",
        "iso2": "AO",
        "iso3": "AGO",
        "province": "Moxico",
        "timezone": "Africa/Luanda",
        "names": "LUO,Luehna,Luena,Luene,Luso,Luzo,Vila Luso,Vila Luzo,Vila Luzu,Villa Luso,lu ai na,luena,lwna  angwla,Луена,Луэна,לואנה,لوئنا، موشیکو صوبہ,لونا، آنگولا,盧埃納,루에나"
    },
    {
        "city": "Tômbua",
        "city_ascii": "Tombua",
        "lat": -15.80003172,
        "lng": 11.85998897,
        "pop": 40000,
        "country": "Angola",
        "iso2": "AO",
        "iso3": "AGO",
        "province": "Namibe",
        "timezone": "Africa/Luanda"
    },
    {
        "city": "Malanje",
        "city_ascii": "Malanje",
        "lat": -9.540000388,
        "lng": 16.34002559,
        "pop": 106451,
        "country": "Angola",
        "iso2": "AO",
        "iso3": "AGO",
        "province": "Malanje",
        "timezone": "Africa/Luanda",
        "names": "MEG,Malandje,Malange,Malanje,Malanzhe,Маланже"
    },
    {
        "city": "Benguela",
        "city_ascii": "Benguela",
        "lat": -12.57826455,
        "lng": 13.40723303,
        "pop": 142017,
        "country": "Angola",
        "iso2": "AO",
        "iso3": "AGO",
        "province": "Benguela",
        "timezone": "Africa/Luanda",
        "names": "BUG,Bengela,Benguela,Benguella,Sao Felipe de Benguela,São Félipe de Benguela,ben ji la,Бенгела,本吉拉"
    },
    {
        "city": "Lubango",
        "city_ascii": "Lubango",
        "lat": -14.91000853,
        "lng": 13.49001868,
        "pop": 114086.5,
        "country": "Angola",
        "iso2": "AO",
        "iso3": "AGO",
        "province": "Huíla",
        "timezone": "Africa/Luanda",
        "names": "Lubangas,Lubango,SDD,Sa da Bandeira,Sá da Bandeira,lu ban ge,lubang-gu,lwbanghw,lwbngw  angwla,rubango,Лубанго,لوبانغو,لوبنگو، آنگولا,ルバンゴ,盧班戈,루방구"
    },
    {
        "city": "Moçâmedes",
        "city_ascii": "Namibe",
        "lat": -15.19004311,
        "lng": 12.16002234,
        "pop": 128130.5,
        "country": "Angola",
        "iso2": "AO",
        "iso3": "AGO",
        "province": "Namibe",
        "timezone": "Africa/Luanda",
        "names": "MSZ,Mocamedes,Mossamedes,Moçâmedes,Namibe,Namibė,na mi bei,namibe,namibeu,namybh  angwla,Намибе,Намібе,نامیبه، آنگولا,نامیبے,ナミベ,納米貝,나미브"
    },
    {
        "city": "Menongue",
        "city_ascii": "Menongue",
        "lat": -14.66661253,
        "lng": 17.69999426,
        "pop": 13030,
        "country": "Angola",
        "iso2": "AO",
        "iso3": "AGO",
        "province": "Cuando Cubango",
        "timezone": "Africa/Luanda",
        "names": "Menonge,Menongve,Menongė,SPP,Serpa Pinto,Vila Serpa Pinto,mei nong gai,menong-geu,menongue,mnngw  angwla,mnwngh,mynwngw,Менонгве,Менонге,מנונגה,مننگو، آنگولا,مینونگو,ሜኖንጉዌ,メノングエ,梅農蓋,메농그"
    },
    {
        "city": "Huambo",
        "city_ascii": "Huambo",
        "lat": -12.74998533,
        "lng": 15.76000932,
        "pop": 986000,
        "country": "Angola",
        "iso2": "AO",
        "iso3": "AGO",
        "province": "Huambo",
        "timezone": "Africa/Luanda",
        "names": "Huambas,Huambo,Huamdo,Khuambo,NOV,Nova Lisboa,Uambo,hu'ambo,hwambw  angwla,uambu,uanbo,wambu,wan bo,Вилояти Ҳвамбо,Уамбо,Хуамбо,הואמבו,هوامبو، آنگولا,ہوامبو,ਹੁਆਂਬੋ,วัมบู,ウアンボ,万博,우암부"
    },
    {
        "city": "Luanda",
        "city_ascii": "Luanda",
        "lat": -8.838286114,
        "lng": 13.23442704,
        "pop": 3562086,
        "country": "Angola",
        "iso2": "AO",
        "iso3": "AGO",
        "province": "Luanda",
        "timezone": "Africa/Luanda",
        "names": "LAD,Loanda,Louanda,Louanta,Luand,Luanda,Luandae,Luando,Lwanda,Lúanda,Saint Paul de Loanda,Sao Paolo de Loanda,Sao Paulo da Assuncao de Luanda,Sao Paulo de Loanda,Sao Paulo de Luanda,St Paul de Loanda,São Paolo de Loanda,São Paulo da Assunção de Luanda,São Paulo de Loanda,São Paulo de Luanda,lu'anda,luanda,luo an da,luvanta,luxanda,luyanda,lwanda,ruanda,Λουάντα,Луандæ,Луанда,Լուանդա,לואנדה,לואנדע,لوآندا,لواندا,لونڈا,लुआंडा,लुआण्डा,লুয়ান্ডা,ਲੁਆਂਦਾ,லுவாண்டா,ลูอันดา,ལའུན་ཌ།,ლუანდა,ሏንዳ,ルアンダ,罗安达,루안다"
    },
    {
        "city": "Artigas Base",
        "city_ascii": "Artigas Base",
        "lat": -62.17388669,
        "lng": -58.86386407,
        "pop": 34.5,
        "country": "Antarctica",
        "iso2": "AQ",
        "iso3": "ATA",
        "province": "",
        "timezone": null
    },
    {
        "city": "Capitan Arturo Prat Station",
        "city_ascii": "Capitan Arturo Prat Station",
        "lat": -62.49950682,
        "lng": -59.68331852,
        "pop": 41,
        "country": "Antarctica",
        "iso2": "AQ",
        "iso3": "ATA",
        "province": "",
        "timezone": null
    },
    {
        "city": "Marambio Station",
        "city_ascii": "Vicecomodoro Marambio Station",
        "lat": -64.23288939,
        "lng": -56.6500153,
        "pop": 102.5,
        "country": "Antarctica",
        "iso2": "AQ",
        "iso3": "ATA",
        "province": "",
        "timezone": null
    },
    {
        "city": "Zucchelli Station",
        "city_ascii": "Terra Nova Bay",
        "lat": -74.61919259,
        "lng": 164.2190271,
        "pop": 60,
        "country": "Antarctica",
        "iso2": "AQ",
        "iso3": "ATA",
        "province": "",
        "timezone": null
    },
    {
        "city": "Rothera Station",
        "city_ascii": "Rothera Station",
        "lat": -67.5647756,
        "lng": -68.12354055,
        "pop": 76,
        "country": "Antarctica",
        "iso2": "AQ",
        "iso3": "ATA",
        "province": "",
        "timezone": null
    },
    {
        "city": "Palmer Station",
        "city_ascii": "Palmer Station",
        "lat": -64.76241335,
        "lng": -64.0468756,
        "pop": 30.5,
        "country": "Antarctica",
        "iso2": "AQ",
        "iso3": "ATA",
        "province": "",
        "timezone": null
    },
    {
        "city": "Base Presidente Montalva",
        "city_ascii": "Teniente Rodolfo Marsh Station",
        "lat": -62.18274357,
        "lng": -58.90765233,
        "pop": 115,
        "country": "Antarctica",
        "iso2": "AQ",
        "iso3": "ATA",
        "province": "",
        "timezone": null
    },
    {
        "city": "Carlini Station",
        "city_ascii": "Teniente Jubany Station",
        "lat": -62.22414386,
        "lng": -58.65047599,
        "pop": 40,
        "country": "Antarctica",
        "iso2": "AQ",
        "iso3": "ATA",
        "province": "",
        "timezone": null
    },
    {
        "city": "King Sejong Station",
        "city_ascii": "King Sejong Station",
        "lat": -62.2248534,
        "lng": -58.77159876,
        "pop": 53.5,
        "country": "Antarctica",
        "iso2": "AQ",
        "iso3": "ATA",
        "province": "",
        "timezone": null
    },
    {
        "city": "Great Wall Station",
        "city_ascii": "Great Wall Station",
        "lat": -62.21631997,
        "lng": -58.9666956,
        "pop": 26,
        "country": "Antarctica",
        "iso2": "AQ",
        "iso3": "ATA",
        "province": "",
        "timezone": null
    },
    {
        "city": "Escudero Base",
        "city_ascii": "Escudero Station",
        "lat": -62.19496251,
        "lng": -58.95266582,
        "pop": 20,
        "country": "Antarctica",
        "iso2": "AQ",
        "iso3": "ATA",
        "province": "",
        "timezone": null
    },
    {
        "city": "Elephant Island",
        "city_ascii": "Elephant Island, South Shetland Islands",
        "lat": -61.99958901,
        "lng": -57.99998458,
        "pop": 3,
        "country": "Antarctica",
        "iso2": "AQ",
        "iso3": "ATA",
        "province": "",
        "timezone": null
    },
    {
        "city": "Scott Base",
        "city_ascii": "Scott Base",
        "lat": -77.84693819,
        "lng": 166.7491023,
        "pop": 49.5,
        "country": "Antarctica",
        "iso2": "AQ",
        "iso3": "ATA",
        "province": "",
        "timezone": null
    },
    {
        "city": "McMurdo Station",
        "city_ascii": "McMurdo Station",
        "lat": -77.73228239,
        "lng": 166.8694157,
        "pop": 600,
        "country": "Antarctica",
        "iso2": "AQ",
        "iso3": "ATA",
        "province": "",
        "timezone": null
    },
    {
        "city": "Zhongshan Station",
        "city_ascii": "Zhongshan Station",
        "lat": -69.43406299,
        "lng": 76.33929808,
        "pop": 42.5,
        "country": "Antarctica",
        "iso2": "AQ",
        "iso3": "ATA",
        "province": "",
        "timezone": null
    },
    {
        "city": "Vostok",
        "city_ascii": "Vostok",
        "lat": -78.46628416,
        "lng": 106.8000337,
        "pop": 19,
        "country": "Antarctica",
        "iso2": "AQ",
        "iso3": "ATA",
        "province": "",
        "timezone": null
    },
    {
        "city": "Peter I Island",
        "city_ascii": "Peter I Island",
        "lat": -68.83286701,
        "lng": 90.49999508,
        "pop": 0.5,
        "country": "Antarctica",
        "iso2": "AQ",
        "iso3": "ATA",
        "province": "",
        "timezone": null
    },
    {
        "city": "Mirny Station",
        "city_ascii": "Mirny Station",
        "lat": -66.57552952,
        "lng": 93.00628846,
        "pop": 114.5,
        "country": "Antarctica",
        "iso2": "AQ",
        "iso3": "ATA",
        "province": "",
        "timezone": null
    },
    {
        "city": "Mawson Station",
        "city_ascii": "Mawson Station",
        "lat": -67.61452032,
        "lng": 62.87500073,
        "pop": 40,
        "country": "Antarctica",
        "iso2": "AQ",
        "iso3": "ATA",
        "province": "",
        "timezone": null
    },
    {
        "city": "Davis Station",
        "city_ascii": "Davis Station",
        "lat": -68.77767439,
        "lng": 78.14073509,
        "pop": 45,
        "country": "Antarctica",
        "iso2": "AQ",
        "iso3": "ATA",
        "province": "",
        "timezone": null
    },
    {
        "city": "Concordia Research Station",
        "city_ascii": "Concordia Research Station",
        "lat": -74.66630939,
        "lng": 124.1670357,
        "pop": 15,
        "country": "Antarctica",
        "iso2": "AQ",
        "iso3": "ATA",
        "province": "",
        "timezone": null
    },
    {
        "city": "Casey Station",
        "city_ascii": "Casey Station",
        "lat": -66.28608614,
        "lng": 110.536214,
        "pop": 125,
        "country": "Antarctica",
        "iso2": "AQ",
        "iso3": "ATA",
        "province": "",
        "timezone": null
    },
    {
        "city": "Amundsen–Scott South Pole Station",
        "city_ascii": "Amundsen–Scott South Pole Station",
        "lat": -89.98289386,
        "lng": 139.2669926,
        "pop": 125,
        "country": "Antarctica",
        "iso2": "AQ",
        "iso3": "ATA",
        "province": "",
        "timezone": null
    },
    {
        "city": "Wasa Station",
        "city_ascii": "Wasa Station",
        "lat": -73.0496122,
        "lng": -13.41671106,
        "pop": 5,
        "country": "Antarctica",
        "iso2": "AQ",
        "iso3": "ATA",
        "province": "",
        "timezone": null
    },
    {
        "city": "Troll Station",
        "city_ascii": "Troll Station",
        "lat": -72.01629026,
        "lng": 2.533323119,
        "pop": 25.5,
        "country": "Antarctica",
        "iso2": "AQ",
        "iso3": "ATA",
        "province": "",
        "timezone": null
    },
    {
        "city": "Svea Station",
        "city_ascii": "Svea Station",
        "lat": -74.58290363,
        "lng": -11.21669031,
        "pop": 5,
        "country": "Antarctica",
        "iso2": "AQ",
        "iso3": "ATA",
        "province": "",
        "timezone": null
    },
    {
        "city": "Novolazarevskaya Station",
        "city_ascii": "Novolazarevskaya Station",
        "lat": -71.30123475,
        "lng": -11.8502129,
        "pop": 35,
        "country": "Antarctica",
        "iso2": "AQ",
        "iso3": "ATA",
        "province": "",
        "timezone": null
    },
    {
        "city": "Neumayer Station III",
        "city_ascii": "Neumayer",
        "lat": -70.89039668,
        "lng": -7.838438004,
        "pop": 40,
        "country": "Antarctica",
        "iso2": "AQ",
        "iso3": "ATA",
        "province": "",
        "timezone": null
    },
    {
        "city": "Maitri Station",
        "city_ascii": "Maitri Station",
        "lat": -70.7821796,
        "lng": 11.7304584,
        "pop": 33,
        "country": "Antarctica",
        "iso2": "AQ",
        "iso3": "ATA",
        "province": "",
        "timezone": null
    },
    {
        "city": "Halley Station",
        "city_ascii": "Halley Station",
        "lat": -76.09226319,
        "lng": -26.4741567,
        "pop": 43,
        "country": "Antarctica",
        "iso2": "AQ",
        "iso3": "ATA",
        "province": "",
        "timezone": null
    },
    {
        "city": "Belgrano Station",
        "city_ascii": "General Belgrano Station",
        "lat": -77.86632078,
        "lng": -34.61668319,
        "pop": 57,
        "country": "Antarctica",
        "iso2": "AQ",
        "iso3": "ATA",
        "province": "",
        "timezone": null
    },
    {
        "city": "Camp Sobral",
        "city_ascii": "Doctor Sobral",
        "lat": -81.17908472,
        "lng": -40.50153152,
        "pop": 20,
        "country": "Antarctica",
        "iso2": "AQ",
        "iso3": "ATA",
        "province": "",
        "timezone": null
    },
    {
        "city": "Aboa Station",
        "city_ascii": "Aboa Station",
        "lat": -75.04959349,
        "lng": -13.41671106,
        "pop": 15,
        "country": "Antarctica",
        "iso2": "AQ",
        "iso3": "ATA",
        "province": "",
        "timezone": null
    },
    {
        "city": "San Martín Station",
        "city_ascii": "San Martín Station",
        "lat": -68.1163216,
        "lng": -67.0999976,
        "pop": 19,
        "country": "Antarctica",
        "iso2": "AQ",
        "iso3": "ATA",
        "province": "",
        "timezone": null
    },
    {
        "city": "Gen. O'Higgins Station",
        "city_ascii": "General Bernado O'Higgins Station",
        "lat": -63.32841823,
        "lng": -57.88959352,
        "pop": 30,
        "country": "Antarctica",
        "iso2": "AQ",
        "iso3": "ATA",
        "province": "",
        "timezone": null
    },
    {
        "city": "Esperanza Station",
        "city_ascii": "Esperanza Station",
        "lat": -63.37532865,
        "lng": -57.02590151,
        "pop": 152.5,
        "country": "Antarctica",
        "iso2": "AQ",
        "iso3": "ATA",
        "province": "",
        "timezone": null
    },
    {
        "city": "Orcadas Station",
        "city_ascii": "Orcadas Station",
        "lat": -60.7328963,
        "lng": -44.73330082,
        "pop": 29.5,
        "country": "Antarctica",
        "iso2": "AQ",
        "iso3": "ATA",
        "province": "",
        "timezone": null
    },
    {
        "city": "Signy Research Station",
        "city_ascii": "Signy Island",
        "lat": -60.63130815,
        "lng": -45.60070332,
        "pop": 4,
        "country": "Antarctica",
        "iso2": "AQ",
        "iso3": "ATA",
        "province": "",
        "timezone": null
    },
    {
        "city": "Dumont d'Urville Station",
        "city_ascii": "Dumont d'Urville Station",
        "lat": -66.77505091,
        "lng": 139.9636836,
        "pop": 75,
        "country": "Antarctica",
        "iso2": "AQ",
        "iso3": "ATA",
        "province": "",
        "timezone": null
    },
    {
        "city": "Showa Station",
        "city_ascii": "Showa Station",
        "lat": -69.03039249,
        "lng": 39.7460831,
        "pop": 50,
        "country": "Antarctica",
        "iso2": "AQ",
        "iso3": "ATA",
        "province": "",
        "timezone": null
    },
    {
        "city": "Saint John’s",
        "city_ascii": "Saint John's",
        "lat": 17.11803652,
        "lng": -61.85003382,
        "pop": 29862.5,
        "country": "Antigua and Barbuda",
        "iso2": "AG",
        "iso3": "ATG",
        "province": "",
        "timezone": "America/Antigua",
        "names": "Saint John,Saint John's,Saint John’s,Sent Dzonsas,Sent Džonsas,Sent Tzons,Sent-Dzhons,St John's,St Johns,St. John's,St.John.s,seinteujonseu,sentojonzu,sheng yue han,sheng yue han shi,snt g'wns,Σεντ Τζονς,Сент-Джонс,סנט ג'ונס,ሴንት ጆንስ፥ አንቲጋ እና ባርቡዳ,セントジョンズ,圣约翰,圣约翰市,세인트존스"
    },
    {
        "city": "28 de Noviembre",
        "city_ascii": "28 de Noviembre",
        "lat": -51.65003986,
        "lng": -72.30001612,
        "pop": 5300,
        "country": "Argentina",
        "iso2": "AR",
        "iso3": "ARG",
        "province": "Santa Cruz",
        "timezone": "America/Santiago"
    },
    {
        "city": "Gobernador Gregores",
        "city_ascii": "Gobernador Gregores",
        "lat": -48.76659829,
        "lng": -70.25001205,
        "pop": 2519,
        "country": "Argentina",
        "iso2": "AR",
        "iso3": "ARG",
        "province": "Santa Cruz",
        "timezone": "America/Argentina/Rio_Gallegos"
    },
    {
        "city": "Comondante Luis Piedrabuena",
        "city_ascii": "Comondante Luis Piedrabuena",
        "lat": -49.97454865,
        "lng": -68.90347273,
        "pop": 410,
        "country": "Argentina",
        "iso2": "AR",
        "iso3": "ARG",
        "province": "Santa Cruz",
        "timezone": "America/Argentina/Rio_Gallegos"
    },
    {
        "city": "Paso Rio Mayo",
        "city_ascii": "Paso Rio Mayo",
        "lat": -45.68337563,
        "lng": -70.26657434,
        "pop": 1825,
        "country": "Argentina",
        "iso2": "AR",
        "iso3": "ARG",
        "province": "Chubut",
        "timezone": "America/Argentina/Catamarca"
    },
    {
        "city": "Alto Rio Sanguer",
        "city_ascii": "Alto Rio Sanguer",
        "lat": -45.03328611,
        "lng": -70.83328394,
        "pop": 1548,
        "country": "Argentina",
        "iso2": "AR",
        "iso3": "ARG",
        "province": "Chubut",
        "timezone": "America/Argentina/Catamarca"
    },
    {
        "city": "El Maiten",
        "city_ascii": "El Maiten",
        "lat": -42.05000568,
        "lng": -71.16662276,
        "pop": 4269,
        "country": "Argentina",
        "iso2": "AR",
        "iso3": "ARG",
        "province": "Chubut",
        "timezone": "America/Argentina/Catamarca"
    },
    {
        "city": "Puerto Madryn",
        "city_ascii": "Puerto Madryn",
        "lat": -42.77001341,
        "lng": -65.04001998,
        "pop": 61159,
        "country": "Argentina",
        "iso2": "AR",
        "iso3": "ARG",
        "province": "Chubut",
        "timezone": "America/Argentina/Catamarca",
        "names": "Madryn,Madrynhyd,Madrynhȳð,PMY,Porth Madryn,Pouerto Madrin,Puehrto-Madrin,Puerto Madrinas,Puerto Madryn,Pureto Madrin,bwyrtw madryn,ma de lin gang,pwrtw madryn,Πουέρτο Μάδριν,Пуэрто-Мадрин,Պուրետո Մադրին,פוארטו מדרין,بويرتو مادرين,پورتو مادرین,馬德林港"
    },
    {
        "city": "Trelew",
        "city_ascii": "Trelew",
        "lat": -43.25003579,
        "lng": -65.3299506,
        "pop": 93128.5,
        "country": "Argentina",
        "iso2": "AR",
        "iso3": "ARG",
        "province": "Chubut",
        "timezone": "America/Argentina/Catamarca",
        "names": "REL,Trelew,Trelju,te lei li wu,teulelle-u,torereu,trlyw,trylyw,טרלאו,ترلئو,تريليو,ტრელევი,トレレウ,特雷利烏,트렐레우"
    },
    {
        "city": "Las Heras",
        "city_ascii": "Las Heras",
        "lat": -32.82503904,
        "lng": -68.80167668,
        "pop": 66663,
        "country": "Argentina",
        "iso2": "AR",
        "iso3": "ARG",
        "province": "Mendoza",
        "timezone": "America/Argentina/Mendoza"
    },
    {
        "city": "San Martin",
        "city_ascii": "San Martin",
        "lat": -33.06998533,
        "lng": -68.49001612,
        "pop": 99974,
        "country": "Argentina",
        "iso2": "AR",
        "iso3": "ARG",
        "province": "Mendoza",
        "timezone": "America/Argentina/Mendoza",
        "names": ""
    },
    {
        "city": "Uspallata",
        "city_ascii": "Uspallata",
        "lat": -32.59311522,
        "lng": -69.34598454,
        "pop": 2390,
        "country": "Argentina",
        "iso2": "AR",
        "iso3": "ARG",
        "province": "Mendoza",
        "timezone": "America/Argentina/Mendoza"
    },
    {
        "city": "Cutral Co",
        "city_ascii": "Cutral Co",
        "lat": -38.94001463,
        "lng": -69.24002202,
        "pop": 47597,
        "country": "Argentina",
        "iso2": "AR",
        "iso3": "ARG",
        "province": "Neuquén",
        "timezone": "America/Argentina/Salta"
    },
    {
        "city": "Punta Alta",
        "city_ascii": "Punta Alta",
        "lat": -38.87996662,
        "lng": -62.0799681,
        "pop": 55969.5,
        "country": "Argentina",
        "iso2": "AR",
        "iso3": "ARG",
        "province": "Ciudad de Buenos Aires",
        "timezone": "America/Argentina/Buenos_Aires",
        "names": "Punta Alta,Punta-Al'ta,bwnta alta,peng ta a er ta,puntaalta,Пунта-Альта,بونتا ألتا,蓬塔阿尔塔,푼타알타"
    },
    {
        "city": "San Nicolas",
        "city_ascii": "San Nicolas",
        "lat": -33.33002114,
        "lng": -60.24000289,
        "pop": 117123.5,
        "country": "Argentina",
        "iso2": "AR",
        "iso3": "ARG",
        "province": "Ciudad de Buenos Aires",
        "timezone": "America/Argentina/Buenos_Aires",
        "names": "San Nicolas,Sint Nicolaas"
    },
    {
        "city": "Campana",
        "city_ascii": "Campana",
        "lat": -34.15999632,
        "lng": -58.95997766,
        "pop": 77149.5,
        "country": "Argentina",
        "iso2": "AR",
        "iso3": "ARG",
        "province": "Ciudad de Buenos Aires",
        "timezone": "America/Argentina/Buenos_Aires",
        "names": "Campana,Kampana,Кампана"
    },
    {
        "city": "Chacabuco",
        "city_ascii": "Chacabuco",
        "lat": -34.65004393,
        "lng": -60.48998763,
        "pop": 26645,
        "country": "Argentina",
        "iso2": "AR",
        "iso3": "ARG",
        "province": "Ciudad de Buenos Aires",
        "timezone": "America/Argentina/Buenos_Aires",
        "names": "Chacabuco,Chakabuko,Чакабуко"
    },
    {
        "city": "Mercedes",
        "city_ascii": "Mercedes",
        "lat": -34.66001748,
        "lng": -59.44002588,
        "pop": 48408.5,
        "country": "Argentina",
        "iso2": "AR",
        "iso3": "ARG",
        "province": "Ciudad de Buenos Aires",
        "timezone": "America/Argentina/Buenos_Aires",
        "names": "Mercedes,Mercedo,Mersedes,Mersedesas,mei sai de si,mrsds  bwynws ayrs,Мерседес,مرسدس، بوئنوس آیرس,مرسيدس، مقاطعة بوينس آيرس,梅塞德斯"
    },
    {
        "city": "Lincoln",
        "city_ascii": "Lincoln",
        "lat": -34.88000405,
        "lng": -61.53994938,
        "pop": 19924,
        "country": "Argentina",
        "iso2": "AR",
        "iso3": "ARG",
        "province": "Ciudad de Buenos Aires",
        "timezone": "America/Argentina/Buenos_Aires",
        "names": "Lincoln"
    },
    {
        "city": "Chivilcoy",
        "city_ascii": "Chivilcoy",
        "lat": -34.89995115,
        "lng": -60.03998926,
        "pop": 43719,
        "country": "Argentina",
        "iso2": "AR",
        "iso3": "ARG",
        "province": "Ciudad de Buenos Aires",
        "timezone": "America/Argentina/Buenos_Aires",
        "names": "Chivilcoy,chywylkwy,qi wei er ke yi,tshyfylkwy,تشيفيلكوي,چیویلکوی,奇維爾科伊"
    },
    {
        "city": "Veinticinco de Mayo",
        "city_ascii": "Veinticinco de Mayo",
        "lat": -35.42999632,
        "lng": -60.17998071,
        "pop": 18749,
        "country": "Argentina",
        "iso2": "AR",
        "iso3": "ARG",
        "province": "Ciudad de Buenos Aires",
        "timezone": "America/Argentina/Buenos_Aires",
        "names": "25 de Mayo,Veinticinco de Mayo"
    },
    {
        "city": "Nueve de Julio",
        "city_ascii": "Nueve de Julio",
        "lat": -35.44596434,
        "lng": -60.88998906,
        "pop": 26716,
        "country": "Argentina",
        "iso2": "AR",
        "iso3": "ARG",
        "province": "Ciudad de Buenos Aires",
        "timezone": "America/Argentina/Buenos_Aires",
        "names": "9 de Julio,Nev-de-Khulio,Nueve de Julio,Нев-де-Хулио"
    },
    {
        "city": "Dolores",
        "city_ascii": "Dolores",
        "lat": -36.33004474,
        "lng": -57.68997766,
        "pop": 21586.5,
        "country": "Argentina",
        "iso2": "AR",
        "iso3": "ARG",
        "province": "Ciudad de Buenos Aires",
        "timezone": "America/Argentina/Buenos_Aires",
        "names": "Dolores"
    },
    {
        "city": "Pedro Luro",
        "city_ascii": "Pedro Luro",
        "lat": -39.48334064,
        "lng": -62.68331629,
        "pop": 7100,
        "country": "Argentina",
        "iso2": "AR",
        "iso3": "ARG",
        "province": "Ciudad de Buenos Aires",
        "timezone": "America/Argentina/Buenos_Aires"
    },
    {
        "city": "Tres Arroyos",
        "city_ascii": "Tres Arroyos",
        "lat": -38.3699719,
        "lng": -60.26994938,
        "pop": 34773.5,
        "country": "Argentina",
        "iso2": "AR",
        "iso3": "ARG",
        "province": "Ciudad de Buenos Aires",
        "timezone": "America/Argentina/Buenos_Aires",
        "names": "OYO,Tres Arojosas,Tres Arroyos,te lei si a luo yue si,trs arwyws,trys arwyws,ترس آرویوس,تريس آرويوس,特雷斯阿羅約斯"
    },
    {
        "city": "Coronel Suárez",
        "city_ascii": "Coronel Suarez",
        "lat": -37.46661619,
        "lng": -61.9166189,
        "pop": 20713,
        "country": "Argentina",
        "iso2": "AR",
        "iso3": "ARG",
        "province": "Ciudad de Buenos Aires",
        "timezone": "America/Argentina/Buenos_Aires",
        "names": "CSZ,Coronel Suarez,Coronel Suárez,Koronel Suarez,Koronel'-Suarez,Коронел Суарез,Коронель-Суарез"
    },
    {
        "city": "Balcarce",
        "city_ascii": "Balcarce",
        "lat": -37.83331216,
        "lng": -58.24999516,
        "pop": 18967,
        "country": "Argentina",
        "iso2": "AR",
        "iso3": "ARG",
        "province": "Ciudad de Buenos Aires",
        "timezone": "America/Argentina/Buenos_Aires",
        "names": "Balcarce,ba er ka sai,balkarsh,balkarsy,بالكارسي,بالکارسه,巴爾卡塞"
    },
    {
        "city": "Veinticinco de Mayo",
        "city_ascii": "25 de Mayo",
        "lat": -37.80003253,
        "lng": -67.68329533,
        "pop": 17430,
        "country": "Argentina",
        "iso2": "AR",
        "iso3": "ARG",
        "province": "Río Negro",
        "timezone": "America/Argentina/Salta",
        "names": "25 de Mayo,Veinticinco de Mayo"
    },
    {
        "city": "General Roca",
        "city_ascii": "General Roca",
        "lat": -39.01995807,
        "lng": -67.60996647,
        "pop": 38578,
        "country": "Argentina",
        "iso2": "AR",
        "iso3": "ARG",
        "province": "Río Negro",
        "timezone": "America/Argentina/Salta",
        "names": "Cheneral Roka,Ciudad de General Roca,Fuerte General Roca,GNR,General Roca,Kheneral',hnrl rwqh,jnral rwka  ryw nyghrw,khnral rwka,luo ka jiang jun shi,Хенераль,חנרל רוקה,جنرال روكا، ريو نيغرو,خنرال روکا,ხენერალ-როკა,羅卡將軍市"
    },
    {
        "city": "Comallo",
        "city_ascii": "Comallo",
        "lat": -41.03332355,
        "lng": -70.26657434,
        "pop": 741,
        "country": "Argentina",
        "iso2": "AR",
        "iso3": "ARG",
        "province": "Río Negro",
        "timezone": "America/Argentina/Salta"
    },
    {
        "city": "Ingeniero Jacobacci",
        "city_ascii": "Ingeniero Jacobacci",
        "lat": -41.30002562,
        "lng": -69.58330855,
        "pop": 5719,
        "country": "Argentina",
        "iso2": "AR",
        "iso3": "ARG",
        "province": "Río Negro",
        "timezone": "America/Argentina/Salta"
    },
    {
        "city": "General Conesa",
        "city_ascii": "General Conesa",
        "lat": -40.10004718,
        "lng": -64.43328699,
        "pop": 2958,
        "country": "Argentina",
        "iso2": "AR",
        "iso3": "ARG",
        "province": "Río Negro",
        "timezone": "America/Argentina/Salta"
    },
    {
        "city": "Choele Choel",
        "city_ascii": "Choele Choel",
        "lat": -39.26660968,
        "lng": -65.68331405,
        "pop": 9895.5,
        "country": "Argentina",
        "iso2": "AR",
        "iso3": "ARG",
        "province": "Río Negro",
        "timezone": "America/Argentina/Salta"
    },
    {
        "city": "San Francisco",
        "city_ascii": "San Francisco",
        "lat": -31.43003375,
        "lng": -62.08996749,
        "pop": 43231,
        "country": "Argentina",
        "iso2": "AR",
        "iso3": "ARG",
        "province": "Córdoba",
        "timezone": "America/Argentina/Cordoba",
        "names": "San Francisco,San Fransiskas,san fransyskw,san fransyskw  qrtbt,sheng fu lang xi si ke,sn prnsysqw,סן פרנסיסקו,سان فرانسيسكو، قرطبة,سان فرانسیسکو,聖弗朗西斯科"
    },
    {
        "city": "Alta Gracia",
        "city_ascii": "Alta Gracia",
        "lat": -31.65999388,
        "lng": -64.4299797,
        "pop": 30593,
        "country": "Argentina",
        "iso2": "AR",
        "iso3": "ARG",
        "province": "Córdoba",
        "timezone": "America/Argentina/Cordoba",
        "names": "Al'ta-Gracija,Alta Gracia,Alta Grasija,alta ghrasya,alta grasya,shang ge la xi ya,Алта Грасия,Альта-Грация,آلتا گراسیا,ألتا غراسيا,上格拉西亞"
    },
    {
        "city": "Villa María",
        "city_ascii": "Villa Maria",
        "lat": -32.41002562,
        "lng": -63.26002527,
        "pop": 76701,
        "country": "Argentina",
        "iso2": "AR",
        "iso3": "ARG",
        "province": "Córdoba",
        "timezone": "America/Argentina/Cordoba",
        "names": "Vilja Marija,Villa Maria,Villa María,fyla marya,ma li ya zhen,vilia-maria,wyya marya,wyzh mryh,ויזה מריה,فيلا ماريا,وییا ماریا,ვილია-მარია,瑪麗亞鎮"
    },
    {
        "city": "Bell Ville",
        "city_ascii": "Bell Ville",
        "lat": -32.60003986,
        "lng": -62.67995732,
        "pop": 29605,
        "country": "Argentina",
        "iso2": "AR",
        "iso3": "ARG",
        "province": "Córdoba",
        "timezone": "America/Argentina/Cordoba",
        "names": "Bell Ville,bei er wei er,bl wyl,byl fyl,بل ویل,بيل فيل,貝爾維爾"
    },
    {
        "city": "Villa Rumipal",
        "city_ascii": "Villa Rumipal",
        "lat": -32.18332111,
        "lng": -64.48328394,
        "pop": 1269,
        "country": "Argentina",
        "iso2": "AR",
        "iso3": "ARG",
        "province": "Córdoba",
        "timezone": "America/Argentina/Cordoba"
    },
    {
        "city": "Villa Carlos Paz",
        "city_ascii": "Villa Carlos Paz",
        "lat": -31.42000853,
        "lng": -64.50000126,
        "pop": 60256,
        "country": "Argentina",
        "iso2": "AR",
        "iso3": "ARG",
        "province": "Córdoba",
        "timezone": "America/Argentina/Cordoba",
        "names": "Karlos-Paz,Vil'ja-Karlos-Pas,Vilja Karlos Pasas,Villa Carlos Paz,Vilya Karlos Pas,fyla karlws baz,ka luo si pa si zhen,wyya karlws pas,Вилья-Карлос-Пас,Карлос-Паз,Վիլյա Կառլոս Պաս,ויזה קרלוס פאס,فيلا كارلوس باز,وییا کارلوس پاس,ვილია-კარლოს-პასი,卡洛斯帕斯鎮"
    },
    {
        "city": "Chumbicha",
        "city_ascii": "Chumbicha",
        "lat": -28.86662433,
        "lng": -66.23330632,
        "pop": 2572,
        "country": "Argentina",
        "iso2": "AR",
        "iso3": "ARG",
        "province": "Catamarca",
        "timezone": "America/Argentina/Catamarca"
    },
    {
        "city": "Tinogasta",
        "city_ascii": "Tinogasta",
        "lat": -28.06662148,
        "lng": -67.56658411,
        "pop": 587,
        "country": "Argentina",
        "iso2": "AR",
        "iso3": "ARG",
        "province": "Catamarca",
        "timezone": "America/Argentina/Catamarca"
    },
    {
        "city": "Abra Pampa",
        "city_ascii": "Abra Pampa",
        "lat": -22.7166638,
        "lng": -65.6999797,
        "pop": 4480,
        "country": "Argentina",
        "iso2": "AR",
        "iso3": "ARG",
        "province": "Jujuy",
        "timezone": "America/Argentina/Jujuy"
    },
    {
        "city": "Humahuaca",
        "city_ascii": "Humahuaca",
        "lat": -23.19999347,
        "lng": -65.34994938,
        "pop": 11369,
        "country": "Argentina",
        "iso2": "AR",
        "iso3": "ARG",
        "province": "Jujuy",
        "timezone": "America/Argentina/Jujuy"
    },
    {
        "city": "Susques",
        "city_ascii": "Susques",
        "lat": -23.41667275,
        "lng": -66.4833169,
        "pop": 1093,
        "country": "Argentina",
        "iso2": "AR",
        "iso3": "ARG",
        "province": "Jujuy",
        "timezone": "America/Argentina/Jujuy"
    },
    {
        "city": "Chepes",
        "city_ascii": "Chepes",
        "lat": -31.34998696,
        "lng": -66.5999506,
        "pop": 6020,
        "country": "Argentina",
        "iso2": "AR",
        "iso3": "ARG",
        "province": "La Rioja",
        "timezone": "America/Argentina/La_Rioja"
    },
    {
        "city": "Yacuiba",
        "city_ascii": "Yacuiba",
        "lat": -22.03003904,
        "lng": -63.69999841,
        "pop": 64811,
        "country": "Argentina",
        "iso2": "AR",
        "iso3": "ARG",
        "province": "Salta",
        "timezone": "America/Argentina/Salta",
        "names": "BYC,Jakuiba,Yacuiba,Yacuíba,Якуиба"
    },
    {
        "city": "Tartagal",
        "city_ascii": "Tartagal",
        "lat": -22.55000731,
        "lng": -63.81001754,
        "pop": 59996.5,
        "country": "Argentina",
        "iso2": "AR",
        "iso3": "ARG",
        "province": "Salta",
        "timezone": "America/Argentina/Salta",
        "names": "TTG,Tartagal,Tartagalis,ta ta jia er,tartagal,tartghal,trtgl,Ταρταγάλ,Тартагал,טרטגל,تارتاگال,تارتغال,塔塔加爾"
    },
    {
        "city": "Joaquín V. González",
        "city_ascii": "Joaquin V. Gonzalez",
        "lat": -25.08334105,
        "lng": -64.18335392,
        "pop": 13376,
        "country": "Argentina",
        "iso2": "AR",
        "iso3": "ARG",
        "province": "Salta",
        "timezone": "America/Argentina/Salta",
        "names": "J.V. Gonzalez,J.V. González,Joaquin V. Gonzalez,Joaquín V. González"
    },
    {
        "city": "General Guemes",
        "city_ascii": "General Guemes",
        "lat": -24.6666223,
        "lng": -65.04996769,
        "pop": 19828,
        "country": "Argentina",
        "iso2": "AR",
        "iso3": "ARG",
        "province": "Salta",
        "timezone": "America/Argentina/Salta"
    },